$GPRMC,050933.710,A,3106.1513712,N,12126.7339593,E,8.22,205.66,270323,0.0,E,R,V*6F
$GPGGA,050933.710,3106.1513712,N,12126.7339593,E,5,24,1.0,5.544,M,11.053,M,-1819044992.0,0000*62
$GPESA,050933.710,-1.167,+4.056,-0.268,+4.094,+1.337,+17.765*4F
$GPRMC,050933.810,A,3106.1515891,N,12126.7338840,E,8.12,206.42,270323,0.0,E,R,V*66
$GPGGA,050933.810,3106.1515891,N,12126.7338840,E,5,24,1.0,5.517,M,11.053,M,-1819044992.0,0000*6B
$GPESA,050933.810,-1.121,+4.015,-0.257,+3.782,+1.122,+17.886*4A
$GPRMC,050933.910,A,3106.1518039,N,12126.7338091,E,8.02,204.60,270323,0.0,E,R,V*67
$GPGGA,050933.910,3106.1518039,N,12126.7338091,E,5,24,1.0,5.492,M,11.053,M,-1819044992.0,0000*65
$GPESA,050933.910,-1.191,+3.944,-0.252,+3.917,+1.098,+18.049*49
$GPRMC,050934.011,A,3106.1548951,N,12126.7331262,E,13.68,208.62,270323,0.0,E,R,V*55
$GPGGA,050934.011,3106.1548951,N,12126.7331262,E,5,24,1.0,5.279,M,11.053,M,-1819044992.0,0000*6C
$GPESA,050934.011,-1.719,+6.813,-0.422,-0.318,+1.099,+13.594*48
$GPRMC,050934.111,A,3106.1552669,N,12126.7330167,E,13.92,208.63,270323,0.0,E,R,V*58
$GPGGA,050934.111,3106.1552669,N,12126.7330167,E,5,23,1.0,5.236,M,11.053,M,-1819044992.0,0000*69
$GPESA,050934.111,-1.742,+6.934,-0.443,+0.261,+1.144,+13.761*44
$GPRMC,050934.211,A,3106.1556482,N,12126.7329026,E,14.35,208.18,270323,0.0,E,R,V*52
$GPGGA,050934.211,3106.1556482,N,12126.7329026,E,5,23,1.0,5.196,M,11.053,M,-1819044992.0,0000*6C
$GPESA,050934.211,-1.854,+7.136,-0.412,+0.519,+1.164,+13.914*46
$GPRMC,050934.311,A,3106.1560396,N,12126.7327826,E,14.67,208.25,270323,0.0,E,R,V*5B
$GPGGA,050934.311,3106.1560396,N,12126.7327826,E,5,23,1.0,5.158,M,11.053,M,-1819044992.0,0000*6E
$GPESA,050934.311,-1.904,+7.292,-0.386,+0.277,+1.079,+13.975*41
$GPRMC,050934.411,A,3106.1564371,N,12126.7326596,E,14.88,207.53,270323,0.0,E,R,V*59
$GPGGA,050934.411,3106.1564371,N,12126.7326596,E,5,23,1.0,5.118,M,11.053,M,-1819044992.0,0000*67
$GPESA,050934.411,-1.985,+7.383,-0.410,+0.027,+0.983,+14.058*4D
$GPRMC,050934.511,A,3106.1568381,N,12126.7325344,E,15.00,207.25,270323,0.0,E,R,V*51
$GPGGA,050934.511,3106.1568381,N,12126.7325344,E,5,23,1.0,5.075,M,11.053,M,-1819044992.0,0000*65
$GPESA,050934.511,-2.008,+7.438,-0.456,-0.140,+0.804,+14.136*47
$GPRMC,050934.611,A,3106.1572427,N,12126.7324075,E,15.16,206.98,270323,0.0,E,R,V*52
$GPGGA,050934.611,3106.1572427,N,12126.7324075,E,5,23,1.0,5.028,M,11.053,M,-1819044992.0,0000*6E
$GPESA,050934.611,-2.041,+7.511,-0.486,-0.079,+0.760,+14.235*48
$GPRMC,050934.711,A,3106.1576523,N,12126.7322769,E,15.39,206.70,270323,0.0,E,R,V*55
$GPGGA,050934.711,3106.1576523,N,12126.7322769,E,5,23,1.0,4.979,M,11.053,M,-1819044992.0,0000*6E
$GPESA,050934.711,-2.097,+7.618,-0.494,-0.055,+0.662,+14.334*46
$GPRMC,050934.811,A,3106.1580674,N,12126.7321438,E,15.61,206.59,270323,0.0,E,R,V*50
$GPGGA,050934.811,3106.1580674,N,12126.7321438,E,5,23,1.0,4.930,M,11.053,M,-1819044992.0,0000*60
$GPESA,050934.811,-2.140,+7.723,-0.493,-0.058,+0.685,+14.507*4E
$GPRMC,050934.911,A,3106.1584870,N,12126.7320056,E,15.79,206.07,270323,0.0,E,R,V*50
$GPGGA,050934.911,3106.1584870,N,12126.7320056,E,5,23,1.0,4.882,M,11.053,M,-1819044992.0,0000*6A
$GPESA,050934.911,-2.214,+7.799,-0.493,-0.139,+0.522,+14.700*41
$GPRMC,050935.011,A,3106.1589105,N,12126.7318655,E,15.91,205.77,270323,0.0,E,R,V*52
$GPGGA,050935.011,3106.1589105,N,12126.7318655,E,5,23,1.0,4.831,M,11.053,M,-1819044992.0,0000*62
$GPESA,050935.011,-2.251,+7.852,-0.513,-0.128,+0.567,+14.958*4B
$GPRMC,050935.111,A,3106.1593378,N,12126.7317220,E,16.09,205.30,270323,0.0,E,R,V*58
$GPGGA,050935.111,3106.1593378,N,12126.7317220,E,5,23,1.0,4.780,M,11.053,M,-1819044992.0,0000*6C
$GPESA,050935.111,-2.320,+7.928,-0.519,-0.039,+0.626,+15.256*48
$GPRMC,050935.211,A,3106.1597687,N,12126.7315726,E,16.29,204.35,270323,0.0,E,R,V*5D
$GPGGA,050935.211,3106.1597687,N,12126.7315726,E,5,23,1.0,4.728,M,11.053,M,-1819044992.0,0000*6D
$GPESA,050935.211,-2.441,+8.000,-0.511,+0.042,+0.654,+15.619*4F
$GPRMC,050935.312,A,3106.1602042,N,12126.7314179,E,16.52,203.93,270323,0.0,E,R,V*55
$GPGGA,050935.312,3106.1602042,N,12126.7314179,E,5,23,1.0,4.676,M,11.053,M,-1819044992.0,0000*68
$GPESA,050935.312,-2.506,+8.102,-0.539,+0.109,+0.718,+16.001*4D
$GPRMC,050935.412,A,3106.1606532,N,12126.7312597,E,16.68,204.72,270323,0.0,E,R,V*57
$GPGGA,050935.412,3106.1606532,N,12126.7312597,E,5,23,1.0,5.500,M,11.053,M,-1819044992.0,0000*68
$GPESA,050935.412,-2.530,+8.193,-0.356,+0.206,+0.990,+16.867*42
$GPRMC,050935.512,A,3106.1610999,N,12126.7310967,E,16.96,204.13,270323,0.0,E,R,V*5B
$GPGGA,050935.512,3106.1610999,N,12126.7310967,E,5,23,1.0,5.466,M,11.053,M,-1819044992.0,0000*63
$GPESA,050935.512,-2.629,+8.314,-0.354,-0.100,+1.024,+17.228*43
$GPRMC,050935.612,A,3106.1615527,N,12126.7309285,E,17.16,203.24,270323,0.0,E,R,V*51
$GPGGA,050935.612,3106.1615527,N,12126.7309285,E,5,23,1.0,5.427,M,11.053,M,-1819044992.0,0000*66
$GPESA,050935.612,-2.718,+8.387,-0.420,-0.537,+1.143,+17.614*46
$GPRMC,050935.712,A,3106.1620073,N,12126.7307568,E,17.19,202.60,270323,0.0,E,R,V*56
$GPGGA,050935.712,3106.1620073,N,12126.7307568,E,5,23,1.0,5.383,M,11.053,M,-1819044992.0,0000*66
$GPESA,050935.712,-2.771,+8.385,-0.455,-0.762,+1.344,+17.991*4D
$GPRMC,050935.812,A,3106.1624631,N,12126.7305800,E,17.35,201.42,270323,0.0,E,R,V*51
$GPGGA,050935.812,3106.1624631,N,12126.7305800,E,5,23,1.0,5.336,M,11.053,M,-1819044992.0,0000*62
$GPESA,050935.812,-2.892,+8.431,-0.499,-0.754,+1.484,+18.379*45
$GPRMC,050935.912,A,3106.1629192,N,12126.7303938,E,17.41,200.33,270323,0.0,E,R,V*5B
$GPGGA,050935.912,3106.1629192,N,12126.7303938,E,5,23,1.0,5.286,M,11.053,M,-1819044992.0,0000*66
$GPESA,050935.912,-3.008,+8.424,-0.481,-0.560,+1.286,+18.749*45
$GPRMC,050936.012,A,3106.1633786,N,12126.7302039,E,17.63,200.59,270323,0.0,E,R,V*5C
$GPGGA,050936.012,3106.1633786,N,12126.7302039,E,5,23,1.0,5.242,M,11.053,M,-1819044992.0,0000*65
$GPESA,050936.012,-3.047,+8.534,-0.409,-0.322,+1.233,+19.025*46
$GPRMC,050936.112,A,3106.1638419,N,12126.7300117,E,17.77,199.60,270323,0.0,E,R,V*50
$GPGGA,050936.112,3106.1638419,N,12126.7300117,E,5,23,1.0,5.199,M,11.053,M,-1819044992.0,0000*60
$GPESA,050936.112,-3.149,+8.568,-0.450,-0.010,+1.237,+19.284*42
$GPRMC,050936.212,A,3106.1643096,N,12126.7298105,E,18.06,199.53,270323,0.0,E,R,V*56
$GPGGA,050936.212,3106.1643096,N,12126.7298105,E,5,23,1.0,5.157,M,11.053,M,-1819044992.0,0000*6D
$GPESA,050936.212,-3.220,+8.706,-0.416,+0.138,+0.962,+19.408*40
$GPRMC,050936.312,A,3106.1647850,N,12126.7296071,E,18.33,199.62,270323,0.0,E,R,V*59
$GPGGA,050936.312,3106.1647850,N,12126.7296071,E,5,23,1.0,5.114,M,11.053,M,-1819044992.0,0000*61
$GPESA,050936.312,-3.249,+8.840,-0.454,-0.004,+0.807,+19.522*46
$GPRMC,050936.412,A,3106.1652674,N,12126.7294029,E,18.54,200.10,270323,0.0,E,R,V*5A
$GPGGA,050936.412,3106.1652674,N,12126.7294029,E,5,23,1.0,5.067,M,11.053,M,-1819044992.0,0000*60
$GPESA,050936.412,-3.237,+8.960,-0.475,-0.272,+0.789,+19.555*42
$GPRMC,050936.513,A,3106.1657539,N,12126.7291991,E,18.63,200.16,270323,0.0,E,R,V*58
$GPGGA,050936.513,3106.1657539,N,12126.7291991,E,5,23,1.0,5.018,M,11.053,M,-1819044992.0,0000*68
$GPESA,050936.513,-3.236,+9.009,-0.514,-0.513,+0.827,+19.522*49
$GPRMC,050936.613,A,3106.1662420,N,12126.7289950,E,18.67,199.86,270323,0.0,E,R,V*5E
$GPGGA,050936.613,3106.1662420,N,12126.7289950,E,5,23,1.0,4.964,M,11.053,M,-1819044992.0,0000*63
$GPESA,050936.613,-3.258,+9.020,-0.558,-0.508,+0.888,+19.451*4B
$GPRMC,050936.713,A,3106.1667316,N,12126.7287898,E,18.76,199.85,270323,0.0,E,R,V*50
$GPGGA,050936.713,3106.1667316,N,12126.7287898,E,5,23,1.0,4.909,M,11.053,M,-1819044992.0,0000*65
$GPESA,050936.713,-3.278,+9.059,-0.548,-0.405,+0.886,+19.350*43
$GPRMC,050936.813,A,3106.1672251,N,12126.7285851,E,18.89,200.37,270323,0.0,E,R,V*54
$GPGGA,050936.813,3106.1672251,N,12126.7285851,E,5,23,1.0,4.856,M,11.053,M,-1819044992.0,0000*60
$GPESA,050936.813,-3.259,+9.140,-0.521,-0.405,+0.915,+19.234*41
$GPRMC,050936.913,A,3106.1677218,N,12126.7283797,E,18.99,200.43,270323,0.0,E,R,V*5C
$GPGGA,050936.913,3106.1677218,N,12126.7283797,E,5,23,1.0,4.803,M,11.053,M,-1819044992.0,0000*6A
$GPESA,050936.913,-3.267,+9.194,-0.539,-0.419,+0.904,+19.061*42
$GPRMC,050937.013,A,3106.1682212,N,12126.7281742,E,19.10,200.60,270323,0.0,E,R,V*5F
$GPGGA,050937.013,3106.1682212,N,12126.7281742,E,5,23,1.0,4.748,M,11.053,M,-1819044992.0,0000*68
$GPESA,050937.013,-3.264,+9.252,-0.554,-0.475,+0.842,+18.841*49
$GPRMC,050937.113,A,3106.1687231,N,12126.7279713,E,19.13,201.19,270323,0.0,E,R,V*55
$GPGGA,050937.113,3106.1687231,N,12126.7279713,E,5,23,1.0,4.691,M,11.053,M,-1819044992.0,0000*6B
$GPESA,050937.113,-3.202,+9.289,-0.580,-0.516,+0.880,+18.597*4B
$GPRMC,050937.213,A,3106.1692269,N,12126.7277696,E,19.18,201.28,270323,0.0,E,R,V*54
$GPGGA,050937.213,3106.1692269,N,12126.7277696,E,5,23,1.0,4.632,M,11.052,M,-1819044992.0,0000*6B
$GPESA,050937.213,-3.194,+9.315,-0.601,-0.522,+0.856,+18.318*47
$GPRMC,050937.313,A,3106.1697323,N,12126.7275703,E,19.22,201.86,270323,0.0,E,R,V*5D
$GPGGA,050937.313,3106.1697323,N,12126.7275703,E,5,23,1.0,4.572,M,11.052,M,-1819044992.0,0000*68
$GPESA,050937.313,-3.140,+9.355,-0.607,-0.466,+0.896,+18.044*4A
$GPRMC,050937.413,A,3106.1702402,N,12126.7273727,E,19.28,202.33,270323,0.0,E,R,V*54
$GPGGA,050937.413,3106.1702402,N,12126.7273727,E,5,23,1.0,4.512,M,11.052,M,-1819044992.0,0000*60
$GPESA,050937.413,-3.102,+9.404,-0.607,-0.525,+0.883,+17.750*47
$GPRMC,050937.513,A,3106.1707501,N,12126.7271765,E,19.36,202.26,270323,0.0,E,R,V*5D
$GPGGA,050937.513,3106.1707501,N,12126.7271765,E,5,23,1.0,4.449,M,11.052,M,-1819044992.0,0000*6D
$GPESA,050937.513,-3.112,+9.439,-0.640,-0.599,+0.858,+17.455*4D
$GPRMC,050937.613,A,3106.1712613,N,12126.7269818,E,19.35,202.35,270323,0.0,E,R,V*57
$GPGGA,050937.613,3106.1712613,N,12126.7269818,E,5,23,1.0,4.385,M,11.052,M,-1819044992.0,0000*61
$GPESA,050937.613,-3.092,+9.438,-0.663,-0.680,+0.823,+17.158*48
$GPRMC,050937.713,A,3106.1718369,N,12126.7269945,E,19.28,205.44,270323,0.0,E,R,V*50
$GPGGA,050937.713,3106.1718369,N,12126.7269945,E,5,23,1.0,5.411,M,11.052,M,-1819044992.0,0000*60
$GPESA,050937.713,-2.876,+9.484,-0.337,-0.581,+1.110,+16.773*4D
$GPRMC,050937.814,A,3106.1723515,N,12126.7268131,E,19.36,205.70,270323,0.0,E,R,V*5F
$GPGGA,050937.814,3106.1723515,N,12126.7268131,E,5,23,1.0,5.377,M,11.052,M,-1819044992.0,0000*60
$GPESA,050937.814,-2.860,+9.534,-0.343,-0.525,+1.057,+16.541*44
$GPRMC,050937.914,A,3106.1728685,N,12126.7266330,E,19.41,205.70,270323,0.0,E,R,V*52
$GPGGA,050937.914,3106.1728685,N,12126.7266330,E,5,23,1.0,5.342,M,11.052,M,-1819044992.0,0000*6B
$GPESA,050937.914,-2.866,+9.556,-0.343,-0.583,+1.037,+16.341*4B
$GPRMC,050938.014,A,3106.1733865,N,12126.7264547,E,19.40,206.06,270323,0.0,E,R,V*59
$GPGGA,050938.014,3106.1733865,N,12126.7264547,E,5,23,1.0,5.309,M,11.052,M,-1819044992.0,0000*6C
$GPESA,050938.014,-2.835,+9.564,-0.326,-0.631,+1.042,+16.158*4B
$GPRMC,050938.114,A,3106.1739036,N,12126.7262766,E,19.36,205.90,270323,0.0,E,R,V*56
$GPGGA,050938.114,3106.1739036,N,12126.7262766,E,5,23,1.0,5.275,M,11.052,M,-1819044992.0,0000*64
$GPESA,050938.114,-2.832,+9.540,-0.359,-0.495,+0.980,+16.001*44
$GPRMC,050938.214,A,3106.1744214,N,12126.7260985,E,19.44,206.37,270323,0.0,E,R,V*57
$GPGGA,050938.214,3106.1744214,N,12126.7260985,E,5,23,1.0,5.241,M,11.052,M,-1819044992.0,0000*69
$GPESA,050938.214,-2.802,+9.592,-0.338,-0.353,+0.859,+15.855*4E
$GPRMC,050938.314,A,3106.1749418,N,12126.7259220,E,19.52,206.38,270323,0.0,E,R,V*57
$GPGGA,050938.314,3106.1749418,N,12126.7259220,E,5,23,1.0,5.208,M,11.052,M,-1819044992.0,0000*6C
$GPESA,050938.314,-2.816,+9.635,-0.332,-0.305,+0.905,+15.757*48
$GPRMC,050938.414,A,3106.1754642,N,12126.7257449,E,19.57,206.50,270323,0.0,E,R,V*5D
$GPGGA,050938.414,3106.1754642,N,12126.7257449,E,4,23,1.0,5.175,M,11.052,M,-1819044992.0,0000*65
$GPESA,050938.414,-2.809,+9.662,-0.336,-0.368,+0.890,+15.681*4B
$GPRMC,050938.514,A,3106.1759875,N,12126.7255680,E,19.56,206.46,270323,0.0,E,R,V*58
$GPGGA,050938.514,3106.1759875,N,12126.7255680,E,4,23,1.0,5.140,M,11.052,M,-1819044992.0,0000*60
$GPESA,050938.514,-2.804,+9.659,-0.356,-0.397,+0.884,+15.602*47
$GPRMC,050938.614,A,3106.1765113,N,12126.7253913,E,19.61,206.56,270323,0.0,E,R,V*5B
$GPGGA,050938.614,3106.1765113,N,12126.7253913,E,4,23,1.0,5.104,M,11.052,M,-1819044992.0,0000*66
$GPESA,050938.614,-2.796,+9.684,-0.366,-0.359,+0.872,+15.525*4E
$GPRMC,050938.714,A,3106.1770363,N,12126.7252147,E,19.65,206.53,270323,0.0,E,R,V*52
$GPGGA,050938.714,3106.1770363,N,12126.7252147,E,4,23,1.0,5.067,M,11.052,M,-1819044992.0,0000*6A
$GPESA,050938.714,-2.807,+9.705,-0.362,-0.334,+0.865,+15.437*4B
$GPRMC,050938.814,A,3106.1775626,N,12126.7250380,E,19.68,206.63,270323,0.0,E,R,V*59
$GPGGA,050938.814,3106.1775626,N,12126.7250380,E,4,23,1.0,5.030,M,11.052,M,-1819044992.0,0000*6D
$GPESA,050938.814,-2.798,+9.721,-0.368,-0.351,+0.842,+15.364*46
$GPRMC,050938.914,A,3106.1780898,N,12126.7248615,E,19.71,206.56,270323,0.0,E,R,V*57
$GPGGA,050938.914,3106.1780898,N,12126.7248615,E,4,23,1.0,4.993,M,11.052,M,-1819044992.0,0000*6C
$GPESA,050938.914,-2.809,+9.736,-0.373,-0.347,+0.870,+15.290*40
$GPRMC,050939.014,A,3106.1786157,N,12126.7246880,E,19.71,206.89,270323,0.0,E,R,V*5D
$GPGGA,050939.014,3106.1786157,N,12126.7246880,E,4,23,1.0,4.959,M,11.052,M,-1819044992.0,0000*62
$GPESA,050939.014,-2.773,+9.745,-0.372,-0.287,+0.926,+15.229*42
$GPRMC,050939.115,A,3106.1791442,N,12126.7245131,E,19.76,206.85,270323,0.0,E,R,V*51
$GPGGA,050939.115,3106.1791442,N,12126.7245131,E,4,23,1.0,4.922,M,11.052,M,-1819044992.0,0000*69
$GPESA,050939.115,-2.786,+9.771,-0.370,-0.201,+0.982,+15.151*41
$GPRMC,050939.215,A,3106.1796757,N,12126.7243395,E,19.83,207.02,270323,0.0,E,R,V*5C
$GPGGA,050939.215,3106.1796757,N,12126.7243395,E,4,23,1.0,4.883,M,11.052,M,-1819044992.0,0000*6A
$GPESA,050939.215,-2.772,+9.811,-0.382,-0.180,+0.990,+15.075*43
$GPRMC,050939.315,A,3106.1802084,N,12126.7241647,E,19.92,207.11,270323,0.0,E,R,V*5C
$GPGGA,050939.315,3106.1802084,N,12126.7241647,E,4,23,1.0,4.845,M,11.052,M,-1819044992.0,0000*62
$GPESA,050939.315,-2.774,+9.856,-0.384,-0.268,+1.078,+14.990*49
$GPRMC,050939.415,A,3106.1807426,N,12126.7239897,E,19.94,206.93,270323,0.0,E,R,V*53
$GPGGA,050939.415,3106.1807426,N,12126.7239897,E,4,23,1.0,4.805,M,11.052,M,-1819044992.0,0000*64
$GPESA,050939.415,-2.786,+9.862,-0.413,-0.346,+1.141,+14.917*44
$GPRMC,050939.515,A,3106.1812792,N,12126.7238166,E,20.00,206.76,270323,0.0,E,R,V*50
$GPGGA,050939.515,3106.1812792,N,12126.7238166,E,4,23,1.0,4.763,M,11.052,M,-1819044992.0,0000*64
$GPESA,050939.515,-2.803,+9.891,-0.438,-0.371,+1.113,+14.833*46
$GPRMC,050939.615,A,3106.1818160,N,12126.7236402,E,20.11,206.75,270323,0.0,E,R,V*58
$GPGGA,050939.615,3106.1818160,N,12126.7236402,E,4,23,1.0,4.718,M,11.052,M,-1819044992.0,0000*63
$GPESA,050939.615,-2.810,+9.945,-0.463,-0.370,+1.101,+14.755*4C
$GPRMC,050939.715,A,3106.1823555,N,12126.7234635,E,20.16,206.87,270323,0.0,E,R,V*5D
$GPGGA,050939.715,3106.1823555,N,12126.7234635,E,4,23,1.0,4.671,M,11.052,M,-1819044992.0,0000*62
$GPESA,050939.715,-2.802,+9.975,-0.469,-0.432,+1.085,+14.670*4D
$GPRMC,050939.815,A,3106.1828965,N,12126.7232859,E,20.21,206.67,270323,0.0,E,R,V*5E
$GPGGA,050939.815,3106.1828965,N,12126.7232859,E,4,23,1.0,4.624,M,11.052,M,-1819044992.0,0000*6B
$GPESA,050939.815,-2.831,+9.995,-0.472,-0.453,+1.038,+14.582*49
$GPRMC,050939.915,A,3106.1834385,N,12126.7231085,E,20.26,206.87,270323,0.0,E,R,V*55
$GPGGA,050939.915,3106.1834385,N,12126.7231085,E,4,23,1.0,4.576,M,11.052,M,-1819044992.0,0000*6D
$GPESA,050939.915,-2.812,+10.025,-0.481,-0.374,+0.998,+14.507*72
$GPRMC,050940.015,A,3106.1839828,N,12126.7229310,E,20.34,206.99,270323,0.0,E,R,V*59
$GPGGA,050940.015,3106.1839828,N,12126.7229310,E,4,23,1.0,4.528,M,11.052,M,-1819044992.0,0000*66
$GPESA,050940.015,-2.814,+10.070,-0.473,-0.334,+0.952,+14.434*7D
$GPRMC,050940.115,A,3106.1845295,N,12126.7227539,E,20.46,207.16,270323,0.0,E,R,V*5F
$GPGGA,050940.115,3106.1845295,N,12126.7227539,E,4,23,1.0,4.480,M,11.052,M,-1819044992.0,0000*60
$GPESA,050940.115,-2.811,+10.131,-0.474,-0.279,+0.956,+14.377*76
$GPRMC,050940.215,A,3106.1850788,N,12126.7225761,E,20.51,207.12,270323,0.0,E,R,V*5E
$GPGGA,050940.215,3106.1850788,N,12126.7225761,E,4,23,1.0,4.432,M,11.052,M,-1819044992.0,0000*6A
$GPESA,050940.215,-2.818,+10.158,-0.486,-0.278,+0.956,+14.328*75
$GPRMC,050940.316,A,3106.1856302,N,12126.7223983,E,20.58,207.08,270323,0.0,E,R,V*5A
$GPGGA,050940.316,3106.1856302,N,12126.7223983,E,4,23,1.0,4.385,M,11.052,M,-1819044992.0,0000*67
$GPESA,050940.316,-2.836,+10.191,-0.480,-0.261,+1.017,+14.279*78
$GPRMC,050940.416,A,3106.1861827,N,12126.7222199,E,20.65,206.91,270323,0.0,E,R,V*58
$GPGGA,050940.416,3106.1861827,N,12126.7222199,E,4,23,1.0,4.336,M,11.052,M,-1819044992.0,0000*62
$GPESA,050940.416,-2.861,+10.217,-0.488,-0.211,+1.064,+14.238*7E
$GPRMC,050940.516,A,3106.1867368,N,12126.7220396,E,20.70,206.97,270323,0.0,E,R,V*52
$GPGGA,050940.516,3106.1867368,N,12126.7220396,E,4,23,1.0,4.287,M,11.052,M,-1819044992.0,0000*61
$GPESA,050940.516,-2.861,+10.243,-0.491,-0.231,+0.989,+14.184*7B
$GPRMC,050940.616,A,3106.1872929,N,12126.7218595,E,20.78,207.02,270323,0.0,E,R,V*51
$GPGGA,050940.616,3106.1872929,N,12126.7218595,E,4,23,1.0,4.237,M,11.052,M,-1819044992.0,0000*6C
$GPESA,050940.616,-2.861,+10.286,-0.504,-0.283,+1.004,+14.149*79
$GPRMC,050940.716,A,3106.1878500,N,12126.7216785,E,20.81,206.79,270323,0.0,E,R,V*5B
$GPGGA,050940.716,3106.1878500,N,12126.7216785,E,4,23,1.0,4.186,M,11.052,M,-1819044992.0,0000*64
$GPESA,050940.716,-2.884,+10.294,-0.524,-0.345,+0.994,+14.117*73
$GPRMC,050940.816,A,3106.1884079,N,12126.7214965,E,20.83,206.48,270323,0.0,E,R,V*5E
$GPGGA,050940.816,3106.1884079,N,12126.7214965,E,4,23,1.0,4.133,M,11.052,M,-1819044992.0,0000*6F
$GPESA,050940.816,-2.916,+10.295,-0.542,-0.391,+0.960,+14.063*77
$GPRMC,050940.916,A,3106.1889659,N,12126.7213134,E,20.85,206.39,270323,0.0,E,R,V*5D
$GPGGA,050940.916,3106.1889659,N,12126.7213134,E,4,23,1.0,4.079,M,11.052,M,-1819044992.0,0000*63
$GPESA,050940.916,-2.931,+10.305,-0.542,-0.402,+0.868,+14.029*71
$GPRMC,050941.016,A,3106.1895236,N,12126.7211306,E,20.83,206.47,270323,0.0,E,R,V*5B
$GPGGA,050941.016,3106.1895236,N,12126.7211306,E,4,23,1.0,4.025,M,11.052,M,-1819044992.0,0000*63
$GPESA,050941.016,-2.914,+10.298,-0.554,-0.337,+0.828,+14.006*74
$GPRMC,050941.116,A,3106.1900843,N,12126.7209531,E,20.86,206.46,270323,0.0,E,R,V*50
$GPGGA,050941.116,3106.1900843,N,12126.7209531,E,4,23,1.0,3.973,M,11.052,M,-1819044992.0,0000*61
$GPESA,050941.116,-2.921,+10.313,-0.551,-0.310,+0.778,+13.996*7C
$GPRMC,050941.216,A,3106.1906432,N,12126.7207696,E,20.89,206.56,270323,0.0,E,R,V*51
$GPGGA,050941.216,3106.1906432,N,12126.7207696,E,4,23,1.0,3.919,M,11.052,M,-1819044992.0,0000*62
$GPESA,050941.216,-2.917,+10.327,-0.540,-0.332,+0.784,+13.982*7B
$GPRMC,050941.316,A,3106.1912018,N,12126.7205857,E,20.85,206.31,270323,0.0,E,R,V*55
$GPGGA,050941.316,3106.1912018,N,12126.7205857,E,4,23,1.0,3.865,M,11.052,M,-1819044992.0,0000*61
$GPESA,050941.316,-2.937,+10.300,-0.546,-0.379,+0.746,+13.968*7E
$GPRMC,050941.416,A,3106.1917591,N,12126.7204018,E,20.79,206.35,270323,0.0,E,R,V*56
$GPGGA,050941.416,3106.1917591,N,12126.7204018,E,4,23,1.0,3.809,M,11.052,M,-1819044992.0,0000*6F
$GPESA,050941.416,-2.918,+10.277,-0.565,-0.369,+0.732,+13.946*7A
$GPRMC,050941.516,A,3106.1923147,N,12126.7202179,E,20.72,206.41,270323,0.0,E,R,V*57
$GPGGA,050941.516,3106.1923147,N,12126.7202179,E,4,23,1.0,3.754,M,11.052,M,-1819044992.0,0000*61
$GPESA,050941.516,-2.906,+10.243,-0.549,-0.337,+0.723,+13.921*77
$GPRMC,050941.617,A,3106.1928684,N,12126.7200346,E,20.64,206.13,270323,0.0,E,R,V*5A
$GPGGA,050941.617,3106.1928684,N,12126.7200346,E,4,23,1.0,3.698,M,11.052,M,-1819044992.0,0000*6D
$GPESA,050941.617,-2.921,+10.193,-0.560,-0.284,+0.771,+13.912*7B
$GPRMC,050941.717,A,3106.1934203,N,12126.7198509,E,20.63,206.08,270323,0.0,E,R,V*5F
$GPGGA,050941.717,3106.1934203,N,12126.7198509,E,4,23,1.0,3.643,M,11.052,M,-1819044992.0,0000*63
$GPESA,050941.717,-2.929,+10.186,-0.551,-0.264,+0.754,+13.902*7C
$GPRMC,050941.817,A,3106.1939710,N,12126.7196667,E,20.60,205.90,270323,0.0,E,R,V*5E
$GPGGA,050941.817,3106.1939710,N,12126.7196667,E,4,23,1.0,3.587,M,11.052,M,-1819044992.0,0000*68
$GPESA,050941.817,-2.937,+10.167,-0.574,-0.269,+0.754,+13.889*7B
$GPRMC,050941.917,A,3106.1945208,N,12126.7194817,E,20.55,205.81,270323,0.0,E,R,V*55
$GPGGA,050941.917,3106.1945208,N,12126.7194817,E,4,23,1.0,3.530,M,11.052,M,-1819044992.0,0000*69
$GPESA,050941.917,-2.932,+10.139,-0.590,-0.403,+0.701,+13.864*77
$GPRMC,050942.017,A,3106.1950684,N,12126.7192968,E,20.45,205.50,270323,0.0,E,R,V*59
$GPGGA,050942.017,3106.1950684,N,12126.7192968,E,4,23,1.0,3.470,M,11.052,M,-1819044992.0,0000*6D
$GPESA,050942.017,-2.945,+10.081,-0.611,-0.509,+0.721,+13.846*7C
$GPRMC,050942.117,A,3106.1956124,N,12126.7191118,E,20.31,205.32,270323,0.0,E,R,V*58
$GPGGA,050942.117,3106.1956124,N,12126.7191118,E,4,23,1.0,3.407,M,11.052,M,-1819044992.0,0000*6B
$GPESA,050942.117,-2.937,+10.008,-0.627,-0.501,+0.653,+13.818*7B
$GPRMC,050942.217,A,3106.1961529,N,12126.7189276,E,20.21,205.25,270323,0.0,E,R,V*53
$GPGGA,050942.217,3106.1961529,N,12126.7189276,E,4,23,1.0,3.345,M,11.052,M,-1819044992.0,0000*66
$GPESA,050942.217,-2.931,+9.956,-0.621,-0.392,+0.651,+13.812*46
$GPRMC,050942.317,A,3106.1966909,N,12126.7187433,E,20.12,205.16,270323,0.0,E,R,V*52
$GPGGA,050942.317,3106.1966909,N,12126.7187433,E,4,23,1.0,3.283,M,11.052,M,-1819044992.0,0000*6C
$GPESA,050942.317,-2.934,+9.907,-0.603,-0.287,+0.603,+13.795*44
$GPRMC,050942.417,A,3106.1972265,N,12126.7185596,E,20.03,205.16,270323,0.0,E,R,V*5D
$GPGGA,050942.417,3106.1972265,N,12126.7185596,E,4,23,1.0,3.224,M,11.052,M,-1819044992.0,0000*6E
$GPESA,050942.417,-2.925,+9.864,-0.592,-0.200,+0.647,+13.788*4F
$GPRMC,050942.517,A,3106.1977602,N,12126.7183767,E,19.98,205.16,270323,0.0,E,R,V*5E
$GPGGA,050942.517,3106.1977602,N,12126.7183767,E,4,23,1.0,3.165,M,11.052,M,-1819044992.0,0000*63
$GPESA,050942.517,-2.913,+9.838,-0.601,-0.220,+0.680,+13.761*45
$GPRMC,050942.617,A,3106.1982905,N,12126.7181927,E,19.94,204.92,270323,0.0,E,A,V*45
$GPGGA,050942.617,3106.1982905,N,12126.7181927,E,1,23,1.0,3.102,M,11.051,M,-1819044992.0,0000*6D
$GPESA,050942.617,-2.929,+9.810,-0.612,-0.421,+0.601,+13.715*4A
$GPRMC,050942.717,A,3106.1988251,N,12126.7180230,E,19.79,204.64,270323,0.0,E,A,V*42
$GPGGA,050942.717,3106.1988251,N,12126.7180230,E,1,23,1.0,3.040,M,11.051,M,-1819044992.0,0000*67
$GPESA,050942.717,-2.919,+9.732,-0.659,-0.584,+0.644,+13.733*43
$GPRMC,050942.817,A,3106.1993498,N,12126.7178421,E,19.60,204.87,270323,0.0,E,A,V*40
$GPGGA,050942.817,3106.1993498,N,12126.7178421,E,1,23,1.0,2.974,M,11.051,M,-1819044992.0,0000*6F
$GPESA,050942.817,-2.851,+9.645,-0.689,-0.557,+0.804,+13.731*4B
$GPRMC,050942.918,A,3106.1998697,N,12126.7176600,E,19.47,204.28,270323,0.0,E,A,V*47
$GPGGA,050942.918,3106.1998697,N,12126.7176600,E,1,23,1.0,2.905,M,11.051,M,-1819044992.0,0000*6E
$GPESA,050942.918,-2.898,+9.565,-0.682,-0.408,+0.852,+13.714*45
