$GPRMC,050926.700,A,3106.1435608,N,12126.7360851,E,0.22,0.00,270323,0.0,E,R,V*65
$GPGGA,050926.700,3106.1435608,N,12126.7360851,E,5,06,1.0,4.950,M,11.053,M,0.0,0000*71
$GPESA,050926.700,+0.020,-0.068,-0.090,+0.000,+0.000,+0.000*78
$GPESD,050926.700,0.810,0.988,3.611,0.183,0.311,0.737,0.000,0.000,0.000*75
$GPRMC,050926.800,A,3106.1436259,N,12126.7360802,E,0.15,0.00,270323,0.0,E,R,V*6B
$GPGGA,050926.800,3106.1436259,N,12126.7360802,E,5,06,1.0,5.262,M,11.053,M,0.0,0000*70
$GPESA,050926.800,-0.007,-0.039,-0.069,+0.000,+0.000,+0.000*76
$GPESD,050926.800,0.591,0.643,1.997,0.109,0.203,0.322,0.000,0.000,0.000*75
$GPRMC,050926.900,A,3106.1436407,N,12126.7360830,E,0.18,0.00,270323,0.0,E,R,V*6B
$GPGGA,050926.900,3106.1436407,N,12126.7360830,E,5,06,1.0,5.317,M,11.053,M,0.0,0000*7E
$GPESA,050926.900,+0.029,+0.003,-0.090,+0.000,+0.000,+0.000*74
$GPESD,050926.900,0.493,0.551,1.591,0.134,0.174,0.276,0.000,0.000,0.000*70
$GPRMC,050927.000,A,3106.1436572,N,12126.7360801,E,0.06,0.00,270323,0.0,E,R,V*6D
$GPGGA,050927.000,3106.1436572,N,12126.7360801,E,5,06,1.0,5.386,M,11.053,M,0.0,0000*7F
$GPESA,050927.000,-0.016,-0.005,-0.026,+0.000,+0.000,+0.000*7B
$GPESD,050927.000,0.432,0.495,1.370,0.108,0.168,0.225,0.000,0.000,0.000*77
$GPRMC,050927.100,A,3106.1436730,N,12126.7360755,E,0.02,0.00,270323,0.0,E,R,V*62
$GPGGA,050927.100,3106.1436730,N,12126.7360755,E,5,06,1.0,5.471,M,11.053,M,0.0,0000*7B
$GPESA,050927.100,+0.004,-0.007,+0.009,+0.000,+0.000,+0.000*76
$GPESD,050927.100,0.390,0.455,1.224,0.129,0.160,0.207,0.000,0.000,0.000*7E
$GPRMC,050927.200,A,3106.1436861,N,12126.7360749,E,0.04,0.00,270323,0.0,E,R,V*61
$GPGGA,050927.200,3106.1436861,N,12126.7360749,E,5,06,1.0,5.538,M,11.053,M,0.0,0000*72
$GPESA,050927.200,+0.020,+0.002,+0.005,+0.000,+0.000,+0.000*7C
$GPESD,050927.200,0.359,0.424,1.118,0.108,0.157,0.186,0.000,0.000,0.000*7F
$GPRMC,050927.300,A,3106.1436969,N,12126.7360760,E,0.03,0.00,270323,0.0,E,R,V*65
$GPGGA,050927.300,3106.1436969,N,12126.7360760,E,5,06,1.0,5.587,M,11.053,M,0.0,0000*75
$GPESA,050927.300,+0.014,+0.001,+0.002,+0.000,+0.000,+0.000*7E
$GPESD,050927.300,0.334,0.398,1.036,0.108,0.152,0.170,0.000,0.000,0.000*74
$GPRMC,050927.400,A,3106.1437095,N,12126.7360719,E,0.03,0.00,270323,0.0,E,R,V*67
$GPGGA,050927.400,3106.1437095,N,12126.7360719,E,5,06,1.0,5.650,M,11.053,M,0.0,0000*7E
$GPESA,050927.400,-0.003,+0.017,-0.003,+0.000,+0.000,+0.000*79
$GPESD,050927.400,0.314,0.377,0.970,0.127,0.153,0.163,0.000,0.000,0.000*74
$GPRMC,050927.500,A,3106.1437205,N,12126.7360682,E,0.02,0.00,270323,0.0,E,R,V*6F
$GPGGA,050927.500,3106.1437205,N,12126.7360682,E,5,06,1.0,5.701,M,11.053,M,0.0,0000*72
$GPESA,050927.500,+0.002,+0.006,-0.004,+0.000,+0.000,+0.000*78
$GPESD,050927.500,0.297,0.359,0.915,0.127,0.152,0.158,0.000,0.000,0.000*79
$GPRMC,050927.600,A,3106.1437221,N,12126.7360705,E,0.02,0.00,270323,0.0,E,R,V*64
$GPGGA,050927.600,3106.1437221,N,12126.7360705,E,5,06,1.0,5.713,M,11.053,M,0.0,0000*7A
$GPESA,050927.600,+0.004,-0.009,-0.005,+0.000,+0.000,+0.000*75
$GPESD,050927.600,0.282,0.343,0.869,0.126,0.151,0.154,0.000,0.000,0.000*71
$GPRMC,050927.700,A,3106.1437256,N,12126.7360702,E,0.05,0.00,270323,0.0,E,R,V*65
$GPGGA,050927.700,3106.1437256,N,12126.7360702,E,5,06,1.0,5.732,M,11.053,M,0.0,0000*7F
$GPESA,050927.700,-0.023,+0.001,+0.007,+0.000,+0.000,+0.000*7D
$GPESD,050927.700,0.270,0.330,0.829,0.126,0.151,0.151,0.000,0.000,0.000*78
$GPRMC,050927.800,A,3106.1437321,N,12126.7360708,E,0.06,0.00,270323,0.0,E,R,V*62
$GPGGA,050927.800,3106.1437321,N,12126.7360708,E,5,06,1.0,5.752,M,11.053,M,0.0,0000*7D
$GPESA,050927.800,+0.005,+0.026,+0.016,+0.000,+0.000,+0.000*75
$GPESD,050927.800,0.259,0.317,0.794,0.108,0.145,0.145,0.000,0.000,0.000*7C
$GPRMC,050927.900,A,3106.1437325,N,12126.7360697,E,0.02,0.00,270323,0.0,E,R,V*64
$GPGGA,050927.900,3106.1437325,N,12126.7360697,E,5,06,1.0,5.749,M,11.053,M,0.0,0000*75
$GPESA,050927.900,-0.006,-0.006,+0.003,+0.000,+0.000,+0.000*71
$GPESD,050927.900,0.249,0.306,0.764,0.108,0.144,0.139,0.000,0.000,0.000*79
$GPRMC,050928.000,A,3106.1437295,N,12126.7360728,E,0.03,0.00,270323,0.0,E,R,V*6C
$GPGGA,050928.000,3106.1437295,N,12126.7360728,E,5,06,1.0,5.727,M,11.053,M,0.0,0000*74
$GPESA,050928.000,-0.002,+0.013,+0.004,+0.000,+0.000,+0.000*76
$GPESD,050928.000,0.241,0.297,0.736,0.107,0.143,0.134,0.000,0.000,0.000*7C
$GPRMC,050928.100,A,3106.1437282,N,12126.7360730,E,0.03,0.00,270323,0.0,E,R,V*62
$GPGGA,050928.100,3106.1437282,N,12126.7360730,E,5,06,1.0,5.709,M,11.053,M,0.0,0000*76
$GPESA,050928.100,-0.005,+0.010,-0.010,+0.000,+0.000,+0.000*70
$GPESD,050928.100,0.233,0.288,0.712,0.107,0.142,0.129,0.000,0.000,0.000*7D
$GPRMC,050928.200,A,3106.1437244,N,12126.7360801,E,0.02,0.00,270323,0.0,E,R,V*67
$GPGGA,050928.200,3106.1437244,N,12126.7360801,E,5,06,1.0,5.682,M,11.053,M,0.0,0000*70
$GPESA,050928.200,-0.003,-0.000,-0.008,+0.000,+0.000,+0.000*7B
$GPESD,050928.200,0.226,0.279,0.690,0.107,0.141,0.126,0.000,0.000,0.000*73
$GPRMC,050928.300,A,3106.1437272,N,12126.7360801,E,0.02,0.00,270323,0.0,E,R,V*63
$GPGGA,050928.300,3106.1437272,N,12126.7360801,E,5,06,1.0,5.690,M,11.053,M,0.0,0000*77
$GPESA,050928.300,-0.000,-0.001,+0.012,+0.000,+0.000,+0.000*75
$GPESD,050928.300,0.219,0.272,0.669,0.107,0.140,0.123,0.000,0.000,0.000*77
$GPRMC,050928.400,A,3106.1437323,N,12126.7360762,E,0.04,0.00,270323,0.0,E,R,V*6D
$GPGGA,050928.400,3106.1437323,N,12126.7360762,E,5,06,1.0,5.704,M,11.053,M,0.0,0000*73
$GPESA,050928.400,+0.013,-0.009,-0.010,+0.000,+0.000,+0.000*7A
$GPESD,050928.400,0.213,0.265,0.651,0.125,0.147,0.120,0.000,0.000,0.000*73
$GPRMC,050928.500,A,3106.1437311,N,12126.7360800,E,0.05,0.00,270323,0.0,E,R,V*67
$GPGGA,050928.500,3106.1437311,N,12126.7360800,E,5,06,1.0,5.687,M,11.053,M,0.0,0000*72
$GPESA,050928.500,+0.006,+0.024,-0.008,+0.000,+0.000,+0.000*7F
$GPESD,050928.500,0.208,0.258,0.634,0.107,0.139,0.119,0.000,0.000,0.000*76
$GPRMC,050928.600,A,3106.1437379,N,12126.7360781,E,0.09,0.00,270323,0.0,E,R,V*60
$GPGGA,050928.600,3106.1437379,N,12126.7360781,E,5,06,1.0,5.700,M,11.053,M,0.0,0000*77
$GPESA,050928.600,-0.008,+0.048,-0.005,+0.000,+0.000,+0.000*73
$GPESD,050928.600,0.203,0.252,0.618,0.107,0.139,0.116,0.000,0.000,0.000*75
$GPRMC,050928.700,A,3106.1437530,N,12126.7360717,E,0.40,0.00,270323,0.0,E,R,V*68
$GPGGA,050928.700,3106.1437530,N,12126.7360717,E,5,06,1.0,5.714,M,11.053,M,0.0,0000*77
$GPESA,050928.700,-0.030,+0.205,+0.007,+0.000,+0.000,+0.000*76
$GPESD,050928.700,0.198,0.247,0.603,0.125,0.146,0.115,0.000,0.000,0.000*70
$GPRMC,050928.800,A,3106.1437701,N,12126.7360689,E,0.70,0.00,270323,0.0,E,R,V*62
$GPGGA,050928.800,3106.1437701,N,12126.7360689,E,5,06,1.0,5.710,M,11.053,M,0.0,0000*7A
$GPESA,050928.800,-0.075,+0.350,+0.017,+0.000,+0.000,+0.000*78
$GPESD,050928.800,0.194,0.242,0.589,0.125,0.146,0.114,0.000,0.000,0.000*76
$GPRMC,050928.900,A,3106.1437987,N,12126.7360604,E,1.00,0.00,270323,0.0,E,R,V*60
$GPGGA,050928.900,3106.1437987,N,12126.7360604,E,5,06,1.0,5.712,M,11.053,M,0.0,0000*7C
$GPESA,050928.900,-0.098,+0.506,+0.007,+0.000,+0.000,+0.000*7E
$GPESD,050928.900,0.189,0.237,0.577,0.125,0.146,0.113,0.000,0.000,0.000*7F
$GPRMC,050929.000,A,3106.1438324,N,12126.7360528,E,1.31,0.00,270323,0.0,E,R,V*6B
$GPGGA,050929.000,3106.1438324,N,12126.7360528,E,5,06,1.0,5.721,M,11.053,M,0.0,0000*75
$GPESA,050929.000,-0.143,+0.656,+0.028,+0.000,+0.000,+0.000*7A
$GPESD,050929.000,0.186,0.232,0.565,0.125,0.146,0.113,0.000,0.000,0.000*7E
$GPRMC,050929.100,A,3106.1438834,N,12126.7360366,E,1.66,0.00,270323,0.0,E,R,V*6E
$GPGGA,050929.100,3106.1438834,N,12126.7360366,E,5,06,1.0,5.750,M,11.053,M,0.0,0000*74
$GPESA,050929.100,-0.164,+0.837,+0.005,+0.000,+0.000,+0.000*78
$GPESD,050929.100,0.182,0.228,0.553,0.125,0.146,0.112,0.000,0.000,0.000*74
$GPRMC,050929.200,A,3106.1439336,N,12126.7360258,E,1.98,216.10,270323,0.0,E,R,V*6C
$GPGGA,050929.200,3106.1439336,N,12126.7360258,E,5,06,1.0,5.741,M,11.053,M,0.0,0000*73
$GPESA,050929.200,-0.193,+1.000,+0.004,+0.000,+0.000,+0.000*7F
$GPESD,050929.200,0.178,0.224,0.543,0.125,0.146,0.111,0.000,0.000,0.000*7C
$GPRMC,050929.300,A,3106.1439908,N,12126.7360126,E,2.31,214.05,270323,0.0,E,R,V*66
$GPGGA,050929.300,3106.1439908,N,12126.7360126,E,5,06,1.0,5.725,M,11.053,M,0.0,0000*7D
$GPESA,050929.300,-0.246,+1.164,-0.010,+0.000,+0.000,+0.000*75
$GPESD,050929.300,0.175,0.220,0.533,0.125,0.146,0.111,0.000,0.000,0.000*73
$GPRMC,050929.400,A,3106.1440521,N,12126.7360028,E,2.56,215.58,270323,0.0,E,R,V*6F
$GPGGA,050929.400,3106.1440521,N,12126.7360028,E,5,06,1.0,5.708,M,11.053,M,0.0,0000*73
$GPESA,050929.400,-0.251,+1.294,-0.008,+0.000,+0.000,+0.000*71
$GPESD,050929.400,0.172,0.216,0.523,0.125,0.146,0.110,0.000,0.000,0.000*76
$GPRMC,050929.500,A,3106.1441282,N,12126.7359828,E,2.82,214.57,270323,0.0,E,R,V*64
$GPGGA,050929.500,3106.1441282,N,12126.7359828,E,5,06,1.0,5.722,M,11.053,M,0.0,0000*77
$GPESA,050929.500,-0.296,+1.422,-0.004,+0.000,+0.000,+0.000*7C
$GPESD,050929.500,0.169,0.212,0.514,0.125,0.146,0.110,0.000,0.000,0.000*7D
$GPRMC,050929.600,A,3106.1442098,N,12126.7359637,E,3.17,214.59,270323,0.0,E,R,V*6E
$GPGGA,050929.600,3106.1442098,N,12126.7359637,E,5,06,1.0,5.728,M,11.053,M,0.0,0000*74
$GPESA,050929.600,-0.341,+1.593,+0.013,+0.000,+0.000,+0.000*7F
$GPESD,050929.600,0.166,0.209,0.505,0.125,0.146,0.109,0.000,0.000,0.000*73
$GPRMC,050929.700,A,3106.1443021,N,12126.7359433,E,3.45,215.29,270323,0.0,E,R,V*6B
$GPGGA,050929.700,3106.1443021,N,12126.7359433,E,5,06,1.0,5.742,M,11.053,M,0.0,0000*7C
$GPESA,050929.700,-0.356,+1.737,+0.012,+0.000,+0.000,+0.000*75
$GPESD,050929.700,0.164,0.206,0.497,0.125,0.146,0.109,0.000,0.000,0.000*75
$GPRMC,050929.800,A,3106.1444020,N,12126.7359187,E,3.89,213.03,270323,0.0,E,R,V*66
$GPGGA,050929.800,3106.1444020,N,12126.7359187,E,5,06,1.0,5.736,M,11.053,M,0.0,0000*7C
$GPESA,050929.800,-0.445,+1.949,-0.002,+0.000,+0.000,+0.000*7F
$GPESD,050929.800,0.161,0.203,0.489,0.124,0.146,0.108,0.000,0.000,0.000*75
$GPRMC,050929.900,A,3106.1445120,N,12126.7358911,E,4.20,213.59,270323,0.0,E,R,V*6A
$GPGGA,050929.900,3106.1445120,N,12126.7358911,E,5,06,1.0,5.726,M,11.053,M,0.0,0000*7A
$GPESA,050929.900,-0.466,+2.109,-0.003,+0.000,+0.000,+0.000*71
$GPESD,050929.900,0.159,0.200,0.482,0.124,0.146,0.108,0.000,0.000,0.000*77
$GPRMC,050930.000,A,3106.1446179,N,12126.7358703,E,4.39,214.20,270323,0.0,E,R,V*68
$GPGGA,050930.000,3106.1446179,N,12126.7358703,E,5,06,1.0,5.700,M,11.053,M,0.0,0000*7D
$GPESA,050930.000,-0.473,+2.209,-0.000,+0.000,+0.000,+0.000*74
$GPESD,050930.000,0.156,0.197,0.475,0.124,0.146,0.107,0.000,0.000,0.000*73
$GPRMC,050930.100,A,3106.1447414,N,12126.7358418,E,4.61,215.06,270323,0.0,E,R,V*67
$GPGGA,050930.100,3106.1447414,N,12126.7358418,E,5,06,1.0,5.712,M,11.053,M,0.0,0000*79
$GPESA,050930.100,-0.467,+2.325,-0.012,+0.000,+0.000,+0.000*7C
$GPESD,050930.100,0.154,0.194,0.468,0.124,0.146,0.107,0.000,0.000,0.000*7F
$GPRMC,050930.200,A,3106.1448721,N,12126.7358119,E,4.91,214.52,270323,0.0,E,R,V*65
$GPGGA,050930.200,3106.1448721,N,12126.7358119,E,5,06,1.0,5.714,M,11.053,M,0.0,0000*72
$GPESA,050930.200,-0.503,+2.473,-0.030,+0.000,+0.000,+0.000*78
$GPESD,050930.200,0.152,0.192,0.462,0.124,0.145,0.106,0.000,0.000,0.000*74
$GPRMC,050930.300,A,3106.1450112,N,12126.7357838,E,5.29,216.02,270323,0.0,E,R,V*6B
$GPGGA,050930.300,3106.1450112,N,12126.7357838,E,5,06,1.0,5.701,M,11.053,M,0.0,0000*7D
$GPESA,050930.300,-0.504,+2.673,-0.015,+0.000,+0.000,+0.000*7B
$GPESD,050930.300,0.150,0.189,0.455,0.124,0.145,0.106,0.000,0.000,0.000*79
$GPRMC,050930.400,A,3106.1451591,N,12126.7357518,E,5.61,215.79,270323,0.0,E,R,V*6E
$GPGGA,050930.400,3106.1451591,N,12126.7357518,E,5,06,1.0,5.694,M,11.053,M,0.0,0000*76
$GPESA,050930.400,-0.558,+2.833,+0.010,+0.000,+0.000,+0.000*7C
$GPESD,050930.400,0.148,0.187,0.449,0.124,0.145,0.105,0.000,0.000,0.000*77
$GPRMC,050930.500,A,3106.1453093,N,12126.7357186,E,5.91,215.44,270323,0.0,E,R,V*68
$GPGGA,050930.500,3106.1453093,N,12126.7357186,E,5,06,1.0,5.684,M,11.053,M,0.0,0000*70
$GPESA,050930.500,-0.598,+2.982,+0.007,+0.000,+0.000,+0.000*7C
$GPESD,050930.500,0.146,0.185,0.443,0.124,0.145,0.105,0.000,0.000,0.000*70
$GPRMC,050930.600,A,3106.1454751,N,12126.7356771,E,6.19,216.20,270323,0.0,E,R,V*68
$GPGGA,050930.600,3106.1454751,N,12126.7356771,E,5,06,1.0,5.701,M,11.053,M,0.0,0000*7E
$GPESA,050930.600,-0.592,+3.127,-0.001,+0.000,+0.000,+0.000*73
$GPESD,050930.600,0.144,0.182,0.438,0.107,0.137,0.105,0.000,0.000,0.000*7E
$GPRMC,050930.700,A,3106.1456415,N,12126.7356414,E,6.37,215.42,270323,0.0,E,R,V*63
$GPGGA,050930.700,3106.1456415,N,12126.7356414,E,5,06,1.0,5.700,M,11.053,M,0.0,0000*7F
$GPESA,050930.700,-0.631,+3.217,-0.017,+0.000,+0.000,+0.000*7F
$GPESD,050930.700,0.143,0.180,0.433,0.107,0.136,0.104,0.000,0.000,0.000*71
$GPRMC,050930.800,A,3106.1458166,N,12126.7355969,E,6.55,214.91,270323,0.0,E,R,V*6C
$GPGGA,050930.800,3106.1458166,N,12126.7355969,E,5,06,1.0,5.704,M,11.053,M,0.0,0000*7F
$GPESA,050930.800,-0.675,+3.301,-0.006,+0.000,+0.000,+0.000*76
$GPESD,050930.800,0.141,0.178,0.427,0.124,0.145,0.103,0.000,0.000,0.000*7C
$GPRMC,050930.900,A,3106.1459933,N,12126.7355621,E,6.94,216.60,270323,0.0,E,R,V*66
$GPGGA,050930.900,3106.1459933,N,12126.7355621,E,5,06,1.0,5.670,M,11.053,M,0.0,0000*76
$GPESA,050930.900,-0.658,+3.510,+0.017,+0.000,+0.000,+0.000*78
$GPESD,050930.900,0.139,0.176,0.422,0.124,0.145,0.103,0.000,0.000,0.000*79
$GPRMC,050931.000,A,3106.1461769,N,12126.7355199,E,7.09,215.37,270323,0.0,E,R,V*64
$GPGGA,050931.000,3106.1461769,N,12126.7355199,E,5,06,1.0,5.651,M,11.053,M,0.0,0000*73
$GPESA,050931.000,-0.736,+3.570,+0.038,+0.000,+0.000,+0.000*72
$GPESD,050931.000,0.138,0.174,0.418,0.124,0.145,0.102,0.000,0.000,0.000*7A
$GPRMC,050931.100,A,3106.1463693,N,12126.7354713,E,7.30,214.54,270323,0.0,E,R,V*68
$GPGGA,050931.100,3106.1463693,N,12126.7354713,E,5,06,1.0,5.652,M,11.053,M,0.0,0000*72
$GPESA,050931.100,-0.784,+3.675,+0.021,+0.000,+0.000,+0.000*74
$GPESD,050931.100,0.136,0.172,0.413,0.124,0.145,0.102,0.000,0.000,0.000*78
$GPRMC,050931.200,A,3106.1465692,N,12126.7354214,E,7.52,214.15,270323,0.0,E,R,V*6F
$GPGGA,050931.200,3106.1465692,N,12126.7354214,E,5,06,1.0,5.660,M,11.053,M,0.0,0000*75
$GPESA,050931.200,-0.812,+3.782,-0.002,+0.000,+0.000,+0.000*79
$GPESD,050931.200,0.135,0.170,0.408,0.124,0.145,0.102,0.000,0.000,0.000*70
$GPRMC,050931.300,A,3106.1467792,N,12126.7353755,E,7.95,215.13,270323,0.0,E,R,V*66
$GPGGA,050931.300,3106.1467792,N,12126.7353755,E,5,06,1.0,5.647,M,11.053,M,0.0,0000*75
$GPESA,050931.300,-0.807,+4.009,-0.012,+0.000,+0.000,+0.000*7E
$GPESD,050931.300,0.133,0.169,0.404,0.124,0.145,0.101,0.000,0.000,0.000*70
$GPRMC,050931.400,A,3106.1469996,N,12126.7353251,E,8.25,215.02,270323,0.0,E,R,V*60
$GPGGA,050931.400,3106.1469996,N,12126.7353251,E,5,06,1.0,5.648,M,11.053,M,0.0,0000*78
$GPESA,050931.400,-0.849,+4.156,-0.001,+0.000,+0.000,+0.000*7A
$GPESD,050931.400,0.132,0.167,0.400,0.124,0.145,0.101,0.000,0.000,0.000*7C
$GPRMC,050931.500,A,3106.1472243,N,12126.7352703,E,8.34,216.00,270323,0.0,E,R,V*6A
$GPGGA,050931.500,3106.1472243,N,12126.7352703,E,5,06,1.0,5.647,M,11.053,M,0.0,0000*7C
$GPESA,050931.500,-0.815,+4.214,+0.010,+0.000,+0.000,+0.000*71
$GPESD,050931.500,0.131,0.165,0.396,0.124,0.145,0.101,0.000,0.000,0.000*74
$GPRMC,050931.600,A,3106.1474373,N,12126.7352285,E,8.47,216.43,270323,0.0,E,R,V*65
$GPGGA,050931.600,3106.1474373,N,12126.7352285,E,5,06,1.0,5.598,M,11.053,M,0.0,0000*71
$GPESA,050931.600,-0.818,+4.281,+0.031,+0.000,+0.000,+0.000*70
$GPESD,050931.600,0.129,0.164,0.392,0.107,0.136,0.101,0.000,0.000,0.000*7E
$GPRMC,050931.700,A,3106.1476763,N,12126.7351719,E,8.94,215.75,270323,0.0,E,R,V*68
$GPGGA,050931.700,3106.1476763,N,12126.7351719,E,5,06,1.0,5.587,M,11.053,M,0.0,0000*7A
$GPESA,050931.700,-0.911,+4.510,+0.052,+0.000,+0.000,+0.000*73
$GPESD,050931.700,0.128,0.162,0.388,0.124,0.145,0.100,0.000,0.000,0.000*77
$GPRMC,050931.800,A,3106.1479203,N,12126.7351095,E,9.13,213.54,270323,0.0,E,R,V*63
$GPGGA,050931.800,3106.1479203,N,12126.7351095,E,5,06,1.0,5.600,M,11.053,M,0.0,0000*76
$GPESA,050931.800,-1.039,+4.579,+0.037,+0.000,+0.000,+0.000*72
$GPESD,050931.800,0.127,0.160,0.384,0.107,0.136,0.100,0.000,0.000,0.000*7C
$GPRMC,050931.900,A,3106.1481707,N,12126.7350481,E,9.49,215.53,270323,0.0,E,R,V*6A
$GPGGA,050931.900,3106.1481707,N,12126.7350481,E,5,06,1.0,5.595,M,11.053,M,0.0,0000*7E
$GPESA,050931.900,-0.969,+4.784,+0.038,+0.000,+0.000,+0.000*71
$GPESD,050931.900,0.126,0.159,0.380,0.107,0.136,0.099,0.000,0.000,0.000*73
$GPRMC,050932.000,A,3106.1484309,N,12126.7349894,E,9.86,215.15,270323,0.0,E,R,V*6E
$GPGGA,050932.000,3106.1484309,N,12126.7349894,E,5,06,1.0,5.568,M,11.053,M,0.0,0000*79
$GPESA,050932.000,-1.011,+4.969,+0.007,+0.000,+0.000,+0.000*7D
$GPESD,050932.000,0.124,0.158,0.377,0.107,0.136,0.098,0.000,0.000,0.000*73
$GPRMC,050932.100,A,3106.1486983,N,12126.7349276,E,10.24,214.40,270323,0.0,E,R,V*52
$GPGGA,050932.100,3106.1486983,N,12126.7349276,E,5,06,1.0,5.538,M,11.053,M,0.0,0000*71
$GPESA,050932.100,-1.103,+5.154,+0.019,+0.000,+0.000,+0.000*76
$GPESD,050932.100,0.123,0.154,0.373,0.110,0.135,0.104,0.000,0.000,0.000*7C
$GPRMC,050932.200,A,3106.1489773,N,12126.7348605,E,10.35,213.48,270323,0.0,E,R,V*51
$GPGGA,050932.200,3106.1489773,N,12126.7348605,E,5,06,1.0,5.552,M,11.053,M,0.0,0000*71
$GPESA,050932.200,-1.162,+5.196,+0.004,+0.000,+0.000,+0.000*70
$GPESD,050932.200,0.121,0.152,0.369,0.107,0.135,0.097,0.000,0.000,0.000*7D
$GPRMC,050932.300,A,3106.1492525,N,12126.7347954,E,10.46,214.17,270323,0.0,E,R,V*56
$GPGGA,050932.300,3106.1492525,N,12126.7347954,E,5,06,1.0,5.536,M,11.053,M,0.0,0000*7D
$GPESA,050932.300,-1.129,+5.262,-0.001,+0.000,+0.000,+0.000*75
$GPESD,050932.300,0.120,0.151,0.366,0.107,0.135,0.097,0.000,0.000,0.000*71
$GPRMC,050932.400,A,3106.1495342,N,12126.7347279,E,10.54,215.25,270323,0.0,E,R,V*56
$GPGGA,050932.400,3106.1495342,N,12126.7347279,E,5,06,1.0,5.539,M,11.053,M,0.0,0000*71
$GPESA,050932.400,-1.089,+5.311,+0.033,+0.000,+0.000,+0.000*7B
$GPESD,050932.400,0.119,0.150,0.363,0.107,0.135,0.096,0.000,0.000,0.000*79
$GPRMC,050932.500,A,3106.1498200,N,12126.7346629,E,10.75,215.05,270323,0.0,E,R,V*5C
$GPGGA,050932.500,3106.1498200,N,12126.7346629,E,5,06,1.0,5.528,M,11.053,M,0.0,0000*7A
$GPESA,050932.500,-1.101,+5.418,-0.007,+0.000,+0.000,+0.000*74
$GPESD,050932.500,0.118,0.149,0.359,0.107,0.135,0.096,0.000,0.000,0.000*78
$GPRMC,050932.600,A,3106.1501186,N,12126.7345853,E,11.04,213.93,270323,0.0,E,R,V*5D
$GPGGA,050932.600,3106.1501186,N,12126.7345853,E,5,06,1.0,5.532,M,11.053,M,0.0,0000*7E
$GPESA,050932.600,-1.206,+5.548,-0.004,+0.000,+0.000,+0.000*74
$GPESD,050932.600,0.117,0.147,0.356,0.107,0.135,0.096,0.000,0.000,0.000*75
$GPRMC,050932.700,A,3106.1504173,N,12126.7345120,E,11.22,213.76,270323,0.0,E,R,V*51
$GPGGA,050932.700,3106.1504173,N,12126.7345120,E,5,06,1.0,5.523,M,11.053,M,0.0,0000*7D
$GPESA,050932.700,-1.243,+5.637,+0.008,+0.000,+0.000,+0.000*75
$GPESD,050932.700,0.116,0.146,0.353,0.107,0.135,0.095,0.000,0.000,0.000*72
$GPRMC,050932.800,A,3106.1507216,N,12126.7344379,E,11.34,213.94,270323,0.0,E,R,V*59
$GPGGA,050932.800,3106.1507216,N,12126.7344379,E,5,06,1.0,5.530,M,11.053,M,0.0,0000*7C
$GPESA,050932.800,-1.257,+5.698,+0.031,+0.000,+0.000,+0.000*70
$GPESD,050932.800,0.116,0.145,0.350,0.107,0.135,0.095,0.000,0.000,0.000*7D
$GPRMC,050932.900,A,3106.1510367,N,12126.7343585,E,11.64,214.30,270323,0.0,E,R,V*57
$GPGGA,050932.900,3106.1510367,N,12126.7343585,E,5,06,1.0,5.540,M,11.053,M,0.0,0000*79
$GPESA,050932.900,-1.263,+5.853,+0.026,+0.000,+0.000,+0.000*79
$GPESD,050932.900,0.115,0.144,0.348,0.124,0.144,0.094,0.000,0.000,0.000*71
$GPRMC,050933.000,A,3106.1513529,N,12126.7342869,E,11.89,215.04,270323,0.0,E,R,V*5B
$GPGGA,050933.000,3106.1513529,N,12126.7342869,E,5,06,1.0,5.538,M,11.053,M,0.0,0000*7F
$GPESA,050933.000,-1.232,+5.990,+0.017,+0.000,+0.000,+0.000*79
$GPESD,050933.000,0.114,0.143,0.345,0.124,0.144,0.094,0.000,0.000,0.000*72
$GPRMC,050933.100,A,3106.1516895,N,12126.7341999,E,12.23,214.24,270323,0.0,E,R,V*58
$GPGGA,050933.100,3106.1516895,N,12126.7341999,E,5,06,1.0,5.560,M,11.053,M,0.0,0000*71
$GPESA,050933.100,-1.328,+6.149,+0.023,+0.000,+0.000,+0.000*7A
$GPESD,050933.100,0.113,0.142,0.342,0.107,0.135,0.094,0.000,0.000,0.000*75
$GPRMC,050933.200,A,3106.1520156,N,12126.7341117,E,12.29,212.83,270323,0.0,E,R,V*57
$GPGGA,050933.200,3106.1520156,N,12126.7341117,E,5,06,1.0,5.546,M,11.053,M,0.0,0000*7B
$GPESA,050933.200,-1.439,+6.157,+0.030,+0.000,+0.000,+0.000*73
$GPESD,050933.200,0.112,0.141,0.339,0.124,0.144,0.094,0.000,0.000,0.000*7F
$GPRMC,050933.300,A,3106.1523443,N,12126.7340257,E,12.25,212.93,270323,0.0,E,R,V*5F
$GPGGA,050933.300,3106.1523443,N,12126.7340257,E,5,06,1.0,5.558,M,11.053,M,0.0,0000*71
$GPESA,050933.300,-1.436,+6.137,+0.047,+0.000,+0.000,+0.000*7B
$GPESD,050933.300,0.111,0.140,0.337,0.107,0.135,0.094,0.000,0.000,0.000*75
$GPRMC,050933.400,A,3106.1526812,N,12126.7339342,E,12.50,213.01,270323,0.0,E,R,V*56
$GPGGA,050933.400,3106.1526812,N,12126.7339342,E,5,06,1.0,5.568,M,11.053,M,0.0,0000*73
$GPESA,050933.400,-1.448,+6.265,+0.026,+0.000,+0.000,+0.000*76
$GPESD,050933.400,0.110,0.139,0.334,0.107,0.135,0.093,0.000,0.000,0.000*79
$GPRMC,050933.500,A,3106.1530229,N,12126.7338442,E,12.77,213.07,270323,0.0,E,R,V*57
$GPGGA,050933.500,3106.1530229,N,12126.7338442,E,5,06,1.0,5.558,M,11.053,M,0.0,0000*72
$GPESA,050933.500,-1.456,+6.405,-0.011,+0.000,+0.000,+0.000*7A
$GPESD,050933.500,0.110,0.138,0.332,0.107,0.135,0.093,0.000,0.000,0.000*7F
$GPRMC,050933.600,A,3106.1533724,N,12126.7337492,E,13.18,212.42,270323,0.0,E,R,V*55
$GPGGA,050933.600,3106.1533724,N,12126.7337492,E,5,06,1.0,5.543,M,11.053,M,0.0,0000*72
$GPESA,050933.600,-1.559,+6.596,+0.004,+0.000,+0.000,+0.000*7E
$GPESD,050933.600,0.109,0.137,0.329,0.107,0.135,0.093,0.000,0.000,0.000*71
$GPRMC,050933.700,A,3106.1537344,N,12126.7336462,E,13.47,211.46,270323,0.0,E,R,V*51
$GPGGA,050933.700,3106.1537344,N,12126.7336462,E,5,06,1.0,5.537,M,11.053,M,0.0,0000*78
$GPESA,050933.700,-1.656,+6.727,-0.020,+0.000,+0.000,+0.000*7B
$GPESD,050933.700,0.108,0.136,0.327,0.107,0.135,0.093,0.000,0.000,0.000*7E
$GPRMC,050933.800,A,3106.1541002,N,12126.7335449,E,13.69,210.91,270323,0.0,E,R,V*53
$GPGGA,050933.800,3106.1541002,N,12126.7335449,E,5,06,1.0,5.531,M,11.053,M,0.0,0000*7B
$GPESA,050933.800,-1.714,+6.833,-0.043,+0.000,+0.000,+0.000*7C
$GPESD,050933.800,0.107,0.135,0.325,0.107,0.134,0.092,0.000,0.000,0.000*7F
$GPRMC,050933.900,A,3106.1544744,N,12126.7334345,E,13.87,211.25,270323,0.0,E,R,V*56
$GPGGA,050933.900,3106.1544744,N,12126.7334345,E,5,06,1.0,5.551,M,11.053,M,0.0,0000*76
$GPESA,050933.900,-1.716,+6.927,-0.032,+0.000,+0.000,+0.000*7D
$GPESD,050933.900,0.107,0.134,0.322,0.107,0.134,0.092,0.000,0.000,0.000*78
$GPRMC,050934.000,A,3106.1548400,N,12126.7333304,E,13.82,212.16,270323,0.0,E,R,V*53
$GPGGA,050934.000,3106.1548400,N,12126.7333304,E,5,06,1.0,5.550,M,11.053,M,0.0,0000*74
$GPESA,050934.000,-1.676,+6.911,+0.044,+0.000,+0.000,+0.000*76
$GPESD,050934.000,0.106,0.133,0.320,0.107,0.134,0.092,0.000,0.000,0.000*72
$GPRMC,050934.100,A,3106.1552036,N,12126.7332297,E,13.82,212.21,270323,0.0,E,R,V*56
$GPGGA,050934.100,3106.1552036,N,12126.7332297,E,5,06,1.0,5.533,M,11.053,M,0.0,0000*70
$GPESA,050934.100,-1.654,+6.913,+0.009,+0.000,+0.000,+0.000*7C
$GPESD,050934.100,0.105,0.132,0.318,0.107,0.134,0.092,0.000,0.000,0.000*7A
$GPRMC,050934.200,A,3106.1555781,N,12126.7331251,E,14.08,212.30,270323,0.0,E,R,V*55
$GPGGA,050934.200,3106.1555781,N,12126.7331251,E,5,06,1.0,5.528,M,11.053,M,0.0,0000*7C
$GPESA,050934.200,-1.691,+7.045,+0.034,+0.000,+0.000,+0.000*73
$GPESD,050934.200,0.104,0.131,0.316,0.107,0.134,0.091,0.000,0.000,0.000*76
$GPRMC,050934.300,A,3106.1559643,N,12126.7330152,E,14.54,211.62,270323,0.0,E,R,V*5B
$GPGGA,050934.300,3106.1559643,N,12126.7330152,E,5,06,1.0,5.513,M,11.053,M,0.0,0000*77
$GPESA,050934.300,-1.825,+7.256,+0.082,+0.000,+0.000,+0.000*7E
$GPESD,050934.300,0.104,0.131,0.314,0.107,0.134,0.091,0.000,0.000,0.000*75
$GPRMC,050934.400,A,3106.1563694,N,12126.7328912,E,15.04,211.26,270323,0.0,E,R,V*5E
$GPGGA,050934.400,3106.1563694,N,12126.7328912,E,5,06,1.0,5.542,M,11.053,M,0.0,0000*72
$GPESA,050934.400,-1.949,+7.486,+0.152,+0.000,+0.000,+0.000*75
$GPESD,050934.400,0.103,0.130,0.312,0.098,0.129,0.091,0.000,0.000,0.000*79
$GPRMC,050934.500,A,3106.1567788,N,12126.7327679,E,15.25,211.28,270323,0.0,E,R,V*57
$GPGGA,050934.500,3106.1567788,N,12126.7327679,E,5,06,1.0,5.563,M,11.053,M,0.0,0000*75
$GPESA,050934.500,-1.967,+7.594,+0.138,+0.000,+0.000,+0.000*76
$GPESD,050934.500,0.102,0.129,0.310,0.098,0.129,0.091,0.000,0.000,0.000*73
$GPRMC,050934.600,A,3106.1571798,N,12126.7326496,E,15.24,211.41,270323,0.0,E,R,V*5E
$GPGGA,050934.600,3106.1571798,N,12126.7326496,E,5,06,1.0,5.552,M,11.053,M,0.0,0000*70
$GPESA,050934.600,-1.933,+7.600,+0.090,+0.000,+0.000,+0.000*79
$GPESD,050934.600,0.102,0.128,0.308,0.098,0.129,0.090,0.000,0.000,0.000*79
$GPRMC,050934.700,A,3106.1575796,N,12126.7325337,E,15.23,211.37,270323,0.0,E,R,V*5C
$GPGGA,050934.700,3106.1575796,N,12126.7325337,E,5,06,1.0,5.534,M,11.053,M,0.0,0000*74
$GPESA,050934.700,-1.908,+7.602,+0.034,+0.000,+0.000,+0.000*7C
$GPESD,050934.700,0.101,0.127,0.306,0.098,0.129,0.090,0.000,0.000,0.000*7A
$GPRMC,050934.800,A,3106.1579914,N,12126.7324133,E,15.54,210.94,270323,0.0,E,R,V*54
$GPGGA,050934.800,3106.1579914,N,12126.7324133,E,5,06,1.0,5.519,M,11.053,M,0.0,0000*7B
$GPESA,050934.800,-1.983,+7.743,+0.034,+0.000,+0.000,+0.000*74
$GPESD,050934.800,0.100,0.127,0.304,0.098,0.129,0.090,0.000,0.000,0.000*76
$GPRMC,050934.900,A,3106.1584163,N,12126.7322784,E,15.80,210.03,270323,0.0,E,R,V*54
$GPGGA,050934.900,3106.1584163,N,12126.7322784,E,5,06,1.0,5.528,M,11.053,M,0.0,0000*7E
$GPESA,050934.900,-2.097,+7.855,+0.038,+0.000,+0.000,+0.000*7E
$GPESD,050934.900,0.100,0.126,0.302,0.098,0.129,0.090,0.000,0.000,0.000*70
$GPRMC,050935.000,A,3106.1588411,N,12126.7321473,E,16.00,209.92,270323,0.0,E,R,V*53
$GPGGA,050935.000,3106.1588411,N,12126.7321473,E,5,06,1.0,5.515,M,11.053,M,0.0,0000*7C
$GPESA,050935.000,-2.140,+7.948,+0.055,+0.000,+0.000,+0.000*7B
$GPESD,050935.000,0.099,0.125,0.300,0.098,0.129,0.089,0.000,0.000,0.000*70
$GPRMC,050935.100,A,3106.1592652,N,12126.7320163,E,16.17,210.32,270323,0.0,E,R,V*5D
$GPGGA,050935.100,3106.1592652,N,12126.7320163,E,5,06,1.0,5.500,M,11.053,M,0.0,0000*72
$GPESA,050935.100,-2.138,+8.040,+0.078,+0.000,+0.000,+0.000*74
$GPESD,050935.100,0.099,0.124,0.298,0.098,0.129,0.089,0.000,0.000,0.000*70
$GPRMC,050935.200,A,3106.1596981,N,12126.7318786,E,16.21,209.00,270323,0.0,E,R,V*51
$GPGGA,050935.200,3106.1596981,N,12126.7318786,E,5,06,1.0,5.496,M,11.053,M,0.0,0000*7C
$GPESA,050935.200,-2.235,+8.032,+0.026,+0.000,+0.000,+0.000*77
$GPESD,050935.200,0.098,0.124,0.296,0.098,0.129,0.089,0.000,0.000,0.000*7C
$GPRMC,050935.300,A,3106.1601300,N,12126.7317400,E,16.46,208.63,270323,0.0,E,R,V*59
$GPGGA,050935.300,3106.1601300,N,12126.7317400,E,5,06,1.0,5.472,M,11.053,M,0.0,0000*7B
$GPESA,050935.300,-2.310,+8.147,+0.044,+0.000,+0.000,+0.000*77
$GPESD,050935.300,0.098,0.123,0.295,0.098,0.129,0.089,0.000,0.000,0.000*79
$GPRMC,050935.400,A,3106.1605697,N,12126.7315939,E,16.63,208.47,270323,0.0,E,R,V*55
$GPGGA,050935.400,3106.1605697,N,12126.7315939,E,5,06,1.0,5.467,M,11.053,M,0.0,0000*72
$GPESA,050935.400,-2.353,+8.228,+0.054,+0.000,+0.000,+0.000*7C
$GPESD,050935.400,0.097,0.122,0.293,0.098,0.129,0.089,0.000,0.000,0.000*76
$GPRMC,050935.500,A,3106.1610202,N,12126.7314344,E,17.01,207.31,270323,0.0,E,R,V*52
$GPGGA,050935.500,3106.1610202,N,12126.7314344,E,5,06,1.0,5.467,M,11.053,M,0.0,0000*7E
$GPESA,050935.500,-2.511,+8.382,+0.060,+0.000,+0.000,+0.000*7B
$GPESD,050935.500,0.096,0.122,0.291,0.098,0.129,0.088,0.000,0.000,0.000*75
$GPRMC,050935.600,A,3106.1614762,N,12126.7312780,E,17.30,206.81,270323,0.0,E,R,V*54
$GPGGA,050935.600,3106.1614762,N,12126.7312780,E,5,06,1.0,5.454,M,11.053,M,0.0,0000*70
$GPESA,050935.600,-2.578,+8.517,+0.010,+0.000,+0.000,+0.000*7A
$GPESD,050935.600,0.096,0.121,0.289,0.098,0.129,0.088,0.000,0.000,0.000*7C
$GPRMC,050935.700,A,3106.1619412,N,12126.7311107,E,17.41,205.85,270323,0.0,E,R,V*57
$GPGGA,050935.700,3106.1619412,N,12126.7311107,E,5,06,1.0,5.469,M,11.053,M,0.0,0000*7C
$GPESA,050935.700,-2.673,+8.551,-0.015,+0.000,+0.000,+0.000*72
$GPESD,050935.700,0.095,0.120,0.288,0.098,0.129,0.088,0.000,0.000,0.000*7E
$GPRMC,050935.800,A,3106.1624051,N,12126.7309449,E,17.50,205.72,270323,0.0,E,R,V*5B
$GPGGA,050935.800,3106.1624051,N,12126.7309449,E,5,06,1.0,5.469,M,11.053,M,0.0,0000*78
$GPESA,050935.800,-2.676,+8.594,-0.069,+0.000,+0.000,+0.000*7A
$GPESD,050935.800,0.095,0.120,0.286,0.098,0.129,0.088,0.000,0.000,0.000*7F
$GPRMC,050935.900,A,3106.1628693,N,12126.7307677,E,17.73,204.63,270323,0.0,E,R,V*5F
$GPGGA,050935.900,3106.1628693,N,12126.7307677,E,5,06,1.0,5.459,M,11.053,M,0.0,0000*7F
$GPESA,050935.900,-2.805,+8.679,-0.088,+0.000,+0.000,+0.000*7E
$GPESD,050935.900,0.094,0.119,0.285,0.098,0.128,0.088,0.000,0.000,0.000*77
$GPRMC,050936.000,A,3106.1633237,N,12126.7305908,E,17.76,203.73,270323,0.0,E,R,V*53
$GPGGA,050936.000,3106.1633237,N,12126.7305908,E,5,06,1.0,5.430,M,11.053,M,0.0,0000*7F
$GPESA,050936.000,-2.911,+8.660,-0.033,+0.000,+0.000,+0.000*78
$GPESD,050936.000,0.093,0.117,0.284,0.100,0.129,0.094,0.000,0.000,0.000*79
$GPRMC,050936.100,A,3106.1637878,N,12126.7304045,E,17.92,203.73,270323,0.0,E,R,V*5C
$GPGGA,050936.100,3106.1637878,N,12126.7304045,E,5,06,1.0,5.415,M,11.053,M,0.0,0000*7D
$GPESA,050936.100,-2.974,+8.728,+0.072,+0.000,+0.000,+0.000*74
$GPESD,050936.100,0.093,0.117,0.281,0.098,0.128,0.088,0.000,0.000,0.000*71
$GPRMC,050936.200,A,3106.1642573,N,12126.7302232,E,18.05,204.24,270323,0.0,E,R,V*5B
$GPGGA,050936.200,3106.1642573,N,12126.7302232,E,5,06,1.0,5.400,M,11.053,M,0.0,0000*7A
$GPESA,050936.200,-2.952,+8.801,+0.083,+0.000,+0.000,+0.000*79
$GPESD,050936.200,0.092,0.116,0.280,0.098,0.128,0.087,0.000,0.000,0.000*7C
$GPRMC,050936.300,A,3106.1647366,N,12126.7300249,E,18.40,202.89,270323,0.0,E,R,V*53
$GPGGA,050936.300,3106.1647366,N,12126.7300249,E,5,06,1.0,5.404,M,11.053,M,0.0,0000*76
$GPESA,050936.300,-3.134,+8.933,+0.089,+0.000,+0.000,+0.000*7B
$GPESD,050936.300,0.092,0.115,0.278,0.098,0.128,0.087,0.000,0.000,0.000*79
$GPRMC,050936.400,A,3106.1652236,N,12126.7298321,E,18.74,202.65,270323,0.0,E,R,V*5E
$GPGGA,050936.400,3106.1652236,N,12126.7298321,E,5,06,1.0,5.388,M,11.053,M,0.0,0000*7D
$GPESA,050936.400,-3.190,+9.100,+0.018,+0.000,+0.000,+0.000*73
$GPESD,050936.400,0.091,0.115,0.277,0.098,0.128,0.087,0.000,0.000,0.000*72
$GPRMC,050936.500,A,3106.1657218,N,12126.7296403,E,18.95,204.02,270323,0.0,E,R,V*57
$GPGGA,050936.500,3106.1657218,N,12126.7296403,E,5,06,1.0,5.382,M,11.053,M,0.0,0000*76
$GPESA,050936.500,-3.084,+9.250,-0.018,+0.000,+0.000,+0.000*76
$GPESD,050936.500,0.091,0.114,0.275,0.099,0.130,0.087,0.000,0.000,0.000*78
$GPRMC,050936.600,A,3106.1662235,N,12126.7294512,E,18.82,204.74,270323,0.0,E,R,V*59
$GPGGA,050936.600,3106.1662235,N,12126.7294512,E,5,06,1.0,5.411,M,11.053,M,0.0,0000*72
$GPESA,050936.600,-2.973,+9.214,-0.075,+0.000,+0.000,+0.000*7E
$GPESD,050936.600,0.091,0.114,0.274,0.107,0.140,0.087,0.000,0.000,0.000*7B
$GPRMC,050936.700,A,3106.1667212,N,12126.7292567,E,19.09,204.38,270323,0.0,E,R,V*56
$GPGGA,050936.700,3106.1667212,N,12126.7292567,E,5,06,1.0,5.399,M,11.053,M,0.0,0000*70
$GPESA,050936.700,-3.048,+9.333,-0.083,+0.000,+0.000,+0.000*72
$GPESD,050936.700,0.090,0.113,0.272,0.107,0.140,0.087,0.000,0.000,0.000*7A
$GPRMC,050936.800,A,3106.1672133,N,12126.7290692,E,18.91,204.42,270323,0.0,E,R,V*5B
$GPGGA,050936.800,3106.1672133,N,12126.7290692,E,5,06,1.0,5.377,M,11.053,M,0.0,0000*70
$GPESA,050936.800,-3.022,+9.245,-0.063,+0.000,+0.000,+0.000*7F
$GPESD,050936.800,0.090,0.113,0.271,0.107,0.140,0.087,0.000,0.000,0.000*76
$GPRMC,050936.900,A,3106.1677130,N,12126.7288825,E,19.20,205.26,270323,0.0,E,R,V*5F
$GPGGA,050936.900,3106.1677130,N,12126.7288825,E,5,06,1.0,5.356,M,11.053,M,0.0,0000*7F
$GPESA,050936.900,-2.994,+9.414,-0.046,+0.000,+0.000,+0.000*7E
$GPESD,050936.900,0.089,0.112,0.270,0.107,0.134,0.087,0.000,0.000,0.000*7C
$GPRMC,050937.000,A,3106.1682160,N,12126.7286938,E,19.16,205.50,270323,0.0,E,R,V*5F
$GPGGA,050937.000,3106.1682160,N,12126.7286938,E,5,06,1.0,5.358,M,11.053,M,0.0,0000*75
$GPESA,050937.000,-2.999,+9.390,+0.047,+0.000,+0.000,+0.000*77
$GPESD,050937.000,0.089,0.111,0.268,0.107,0.134,0.087,0.000,0.000,0.000*7E
$GPRMC,050937.100,A,3106.1687334,N,12126.7285025,E,19.56,205.38,270323,0.0,E,R,V*54
$GPGGA,050937.100,3106.1687334,N,12126.7285025,E,5,06,1.0,5.369,M,11.053,M,0.0,0000*76
$GPESA,050937.100,-3.043,+9.593,-0.034,+0.000,+0.000,+0.000*7E
$GPESD,050937.100,0.088,0.111,0.267,0.124,0.144,0.087,0.000,0.000,0.000*77
$GPRMC,050937.200,A,3106.1692595,N,12126.7283132,E,19.25,206.19,270323,0.0,E,R,V*5B
$GPGGA,050937.200,3106.1692595,N,12126.7283132,E,5,06,1.0,5.393,M,11.053,M,0.0,0000*78
$GPESA,050937.200,-2.920,+9.465,-0.018,+0.000,+0.000,+0.000*76
$GPESD,050937.200,0.088,0.111,0.266,0.124,0.144,0.087,0.000,0.000,0.000*75
$GPRMC,050937.300,A,3106.1697582,N,12126.7281406,E,19.31,207.05,270323,0.0,E,R,V*50
$GPGGA,050937.300,3106.1697582,N,12126.7281406,E,5,06,1.0,5.351,M,11.053,M,0.0,0000*74
$GPESA,050937.300,-2.848,+9.517,-0.002,+0.000,+0.000,+0.000*77
$GPESD,050937.300,0.087,0.110,0.264,0.124,0.144,0.087,0.000,0.000,0.000*78
$GPRMC,050937.400,A,3106.1702801,N,12126.7279633,E,19.51,207.59,270323,0.0,E,R,V*50
$GPGGA,050937.400,3106.1702801,N,12126.7279633,E,5,06,1.0,5.366,M,11.052,M,0.0,0000*7E
$GPESA,050937.400,-2.805,+9.637,-0.045,+0.000,+0.000,+0.000*7B
$GPESD,050937.400,0.087,0.109,0.263,0.124,0.144,0.087,0.000,0.000,0.000*70
$GPRMC,050937.500,A,3106.1708103,N,12126.7277843,E,19.61,207.93,270323,0.0,E,R,V*52
$GPGGA,050937.500,3106.1708103,N,12126.7277843,E,5,06,1.0,5.376,M,11.052,M,0.0,0000*78
$GPESA,050937.500,-2.792,+9.692,-0.025,+0.000,+0.000,+0.000*72
$GPESD,050937.500,0.087,0.109,0.262,0.124,0.144,0.087,0.000,0.000,0.000*70
$GPRMC,050937.600,A,3106.1713318,N,12126.7276093,E,19.63,208.07,270323,0.0,E,R,V*57
$GPGGA,050937.600,3106.1713318,N,12126.7276093,E,5,06,1.0,5.367,M,11.052,M,0.0,0000*7D
$GPESA,050937.600,-2.769,+9.713,-0.053,+0.000,+0.000,+0.000*7C
$GPESD,050937.600,0.086,0.108,0.260,0.124,0.144,0.087,0.000,0.000,0.000*71
$GPRMC,050937.700,A,3106.1718532,N,12126.7274365,E,19.62,208.17,270323,0.0,E,R,V*5B
$GPGGA,050937.700,3106.1718532,N,12126.7274365,E,5,06,1.0,5.361,M,11.052,M,0.0,0000*77
$GPESA,050937.700,-2.749,+9.712,-0.072,+0.000,+0.000,+0.000*7D
$GPESD,050937.700,0.086,0.108,0.259,0.124,0.144,0.087,0.000,0.000,0.000*7A
$GPRMC,050937.800,A,3106.1723827,N,12126.7272666,E,19.62,208.98,270323,0.0,E,R,V*52
$GPGGA,050937.800,3106.1723827,N,12126.7272666,E,5,06,1.0,5.383,M,11.052,M,0.0,0000*75
$GPESA,050937.800,-2.670,+9.735,-0.054,+0.000,+0.000,+0.000*78
$GPESD,050937.800,0.085,0.107,0.258,0.107,0.139,0.087,0.000,0.000,0.000*73
$GPRMC,050937.900,A,3106.1729140,N,12126.7270996,E,19.71,209.12,270323,0.0,E,R,V*52
$GPGGA,050937.900,3106.1729140,N,12126.7270996,E,5,06,1.0,5.385,M,11.052,M,0.0,0000*72
$GPESA,050937.900,-2.652,+9.784,-0.088,+0.000,+0.000,+0.000*72
$GPESD,050937.900,0.085,0.107,0.257,0.107,0.139,0.087,0.000,0.000,0.000*7D
$GPRMC,050938.000,A,3106.1734370,N,12126.7269421,E,19.81,210.04,270323,0.0,E,R,V*50
$GPGGA,050938.000,3106.1734370,N,12126.7269421,E,5,06,1.0,5.344,M,11.052,M,0.0,0000*7D
$GPESA,050938.000,-2.590,+9.859,-0.034,+0.000,+0.000,+0.000*71
$GPESD,050938.000,0.085,0.106,0.256,0.107,0.139,0.087,0.000,0.000,0.000*7B
$GPRMC,050938.100,A,3106.1739747,N,12126.7267742,E,19.79,210.20,270323,0.0,E,R,V*55
$GPGGA,050938.100,3106.1739747,N,12126.7267742,E,5,06,1.0,5.361,M,11.052,M,0.0,0000*7E
$GPESA,050938.100,-2.574,+9.853,-0.028,+0.000,+0.000,+0.000*7D
$GPESD,050938.100,0.084,0.106,0.254,0.124,0.144,0.087,0.000,0.000,0.000*72
$GPRMC,050938.200,A,3106.1745059,N,12126.7266102,E,19.73,210.41,270323,0.0,E,R,V*5B
$GPGGA,050938.200,3106.1745059,N,12126.7266102,E,5,06,1.0,5.365,M,11.052,M,0.0,0000*79
$GPESA,050938.200,-2.550,+9.825,-0.011,+0.000,+0.000,+0.000*73
$GPESD,050938.200,0.084,0.106,0.253,0.124,0.144,0.087,0.000,0.000,0.000*76
$GPRMC,050938.300,A,3106.1750386,N,12126.7264441,E,19.81,210.02,270323,0.0,E,R,V*55
$GPGGA,050938.300,3106.1750386,N,12126.7264441,E,5,06,1.0,5.370,M,11.052,M,0.0,0000*79
$GPESA,050938.300,-2.593,+9.854,-0.030,+0.000,+0.000,+0.000*78
$GPESD,050938.300,0.084,0.105,0.252,0.124,0.144,0.087,0.000,0.000,0.000*75
$GPRMC,050938.400,A,3106.1755781,N,12126.7262810,E,19.96,210.57,270323,0.0,E,R,V*5C
$GPGGA,050938.400,3106.1755781,N,12126.7262810,E,5,06,1.0,5.376,M,11.052,M,0.0,0000*70
$GPESA,050938.400,-2.565,+9.940,-0.005,+0.000,+0.000,+0.000*74
$GPESD,050938.400,0.083,0.105,0.251,0.109,0.143,0.087,0.000,0.000,0.000*7E
$GPRMC,050938.500,A,3106.1761205,N,12126.7261216,E,20.10,211.14,270323,0.0,E,R,V*5E
$GPGGA,050938.500,3106.1761205,N,12126.7261216,E,5,06,1.0,5.368,M,11.052,M,0.0,0000*7F
$GPESA,050938.500,-2.528,+10.027,+0.015,+0.000,+0.000,+0.000*4B
$GPESD,050938.500,0.083,0.104,0.250,0.109,0.143,0.086,0.000,0.000,0.000*7E
$GPRMC,050938.600,A,3106.1766538,N,12126.7259657,E,20.09,211.23,270323,0.0,E,R,V*55
$GPGGA,050938.600,3106.1766538,N,12126.7259657,E,5,06,1.0,5.340,M,11.052,M,0.0,0000*72
$GPESA,050938.600,-2.518,+10.022,+0.017,+0.000,+0.000,+0.000*4C
$GPESD,050938.600,0.082,0.104,0.249,0.124,0.144,0.086,0.000,0.000,0.000*7C
$GPRMC,050938.700,A,3106.1772004,N,12126.7258036,E,20.12,211.12,270323,0.0,E,R,V*53
$GPGGA,050938.700,3106.1772004,N,12126.7258036,E,5,06,1.0,5.349,M,11.052,M,0.0,0000*75
$GPESA,050938.700,-2.524,+10.038,-0.003,+0.000,+0.000,+0.000*4A
$GPESD,050938.700,0.082,0.103,0.248,0.109,0.143,0.086,0.000,0.000,0.000*73
$GPRMC,050938.800,A,3106.1777343,N,12126.7256463,E,20.16,210.78,270323,0.0,E,R,V*5A
$GPGGA,050938.800,3106.1777343,N,12126.7256463,E,5,06,1.0,5.323,M,11.052,M,0.0,0000*79
$GPESA,050938.800,-2.553,+10.052,-0.034,+0.000,+0.000,+0.000*4D
$GPESD,050938.800,0.082,0.103,0.246,0.109,0.143,0.086,0.000,0.000,0.000*72
$GPRMC,050938.900,A,3106.1782887,N,12126.7254834,E,20.27,211.02,270323,0.0,E,R,V*50
$GPGGA,050938.900,3106.1782887,N,12126.7254834,E,5,06,1.0,5.341,M,11.052,M,0.0,0000*79
$GPESA,050938.900,-2.538,+10.113,-0.039,+0.000,+0.000,+0.000*48
$GPESD,050938.900,0.081,0.102,0.245,0.109,0.143,0.086,0.000,0.000,0.000*72
$GPRMC,050939.000,A,3106.1788292,N,12126.7253306,E,20.24,211.58,270323,0.0,E,R,V*5D
$GPGGA,050939.000,3106.1788292,N,12126.7253306,E,5,06,1.0,5.325,M,11.052,M,0.0,0000*7A
$GPESA,050939.000,-2.489,+10.111,+0.002,+0.000,+0.000,+0.000*47
$GPESD,050939.000,0.081,0.102,0.244,0.109,0.143,0.086,0.000,0.000,0.000*7B
$GPRMC,050939.100,A,3106.1793789,N,12126.7251732,E,20.28,212.09,270323,0.0,E,R,V*53
$GPGGA,050939.100,3106.1793789,N,12126.7251732,E,5,06,1.0,5.337,M,11.052,M,0.0,0000*7C
$GPESA,050939.100,-2.444,+10.140,+0.019,+0.000,+0.000,+0.000*49
$GPESD,050939.100,0.081,0.102,0.243,0.109,0.143,0.086,0.000,0.000,0.000*7D
$GPRMC,050939.200,A,3106.1799271,N,12126.7250173,E,20.36,211.86,270323,0.0,E,R,V*51
$GPGGA,050939.200,3106.1799271,N,12126.7250173,E,5,06,1.0,5.340,M,11.052,M,0.0,0000*75
$GPESA,050939.200,-2.480,+10.175,+0.019,+0.000,+0.000,+0.000*44
$GPESD,050939.200,0.080,0.101,0.242,0.124,0.144,0.086,0.000,0.000,0.000*75
$GPRMC,050939.300,A,3106.1804852,N,12126.7248588,E,20.48,211.81,270323,0.0,E,R,V*57
$GPGGA,050939.300,3106.1804852,N,12126.7248588,E,5,06,1.0,5.345,M,11.052,M,0.0,0000*78
$GPESA,050939.300,-2.481,+10.237,-0.022,+0.000,+0.000,+0.000*4F
$GPESD,050939.300,0.080,0.101,0.241,0.124,0.144,0.086,0.000,0.000,0.000*77
$GPRMC,050939.400,A,3106.1810300,N,12126.7247121,E,20.50,212.25,270323,0.0,E,R,V*55
$GPGGA,050939.400,3106.1810300,N,12126.7247121,E,5,06,1.0,5.310,M,11.052,M,0.0,0000*7E
$GPESA,050939.400,-2.439,+10.258,-0.008,+0.000,+0.000,+0.000*4A
$GPESD,050939.400,0.080,0.100,0.240,0.124,0.144,0.086,0.000,0.000,0.000*70
$GPRMC,050939.500,A,3106.1815874,N,12126.7245594,E,20.61,212.53,270323,0.0,E,R,V*52
$GPGGA,050939.500,3106.1815874,N,12126.7245594,E,5,06,1.0,5.324,M,11.052,M,0.0,0000*7D
$GPESA,050939.500,-2.425,+10.324,+0.003,+0.000,+0.000,+0.000*41
$GPESD,050939.500,0.079,0.100,0.239,0.124,0.144,0.086,0.000,0.000,0.000*79
$GPRMC,050939.600,A,3106.1821608,N,12126.7243987,E,20.75,212.43,270323,0.0,E,R,V*5F
$GPGGA,050939.600,3106.1821608,N,12126.7243987,E,5,06,1.0,5.355,M,11.052,M,0.0,0000*72
$GPESA,050939.600,-2.430,+10.392,-0.042,+0.000,+0.000,+0.000*48
$GPESD,050939.600,0.079,0.100,0.238,0.124,0.144,0.086,0.000,0.000,0.000*7B
$GPRMC,050939.700,A,3106.1827160,N,12126.7242457,E,20.71,212.10,270323,0.0,E,R,V*52
$GPGGA,050939.700,3106.1827160,N,12126.7242457,E,5,06,1.0,5.318,M,11.052,M,0.0,0000*74
$GPESA,050939.700,-2.444,+10.371,-0.085,+0.000,+0.000,+0.000*4C
$GPESD,050939.700,0.079,0.099,0.237,0.124,0.144,0.086,0.000,0.000,0.000*74
$GPRMC,050939.800,A,3106.1832694,N,12126.7240960,E,20.81,212.23,270323,0.0,E,R,V*51
$GPGGA,050939.800,3106.1832694,N,12126.7240960,E,5,06,1.0,5.279,M,11.052,M,0.0,0000*7E
$GPESA,050939.800,-2.447,+10.421,-0.069,+0.000,+0.000,+0.000*40
$GPESD,050939.800,0.079,0.099,0.236,0.124,0.144,0.086,0.000,0.000,0.000*7A
$GPRMC,050939.900,A,3106.1838357,N,12126.7239405,E,20.94,212.13,270323,0.0,E,R,V*57
$GPGGA,050939.900,3106.1838357,N,12126.7239405,E,5,06,1.0,5.277,M,11.052,M,0.0,0000*71
$GPESA,050939.900,-2.464,+10.486,-0.091,+0.000,+0.000,+0.000*4A
$GPESD,050939.900,0.078,0.098,0.235,0.124,0.144,0.086,0.000,0.000,0.000*78
$GPRMC,050940.000,A,3106.1844124,N,12126.7237817,E,21.02,212.20,270323,0.0,E,R,V*52
$GPGGA,050940.000,3106.1844124,N,12126.7237817,E,5,06,1.0,5.300,M,11.052,M,0.0,0000*7B
$GPESA,050940.000,-2.462,+10.529,-0.097,+0.000,+0.000,+0.000*49
$GPESD,050940.000,0.078,0.098,0.234,0.124,0.144,0.086,0.000,0.000,0.000*7E
$GPRMC,050940.100,A,3106.1849823,N,12126.7236341,E,21.06,212.89,270323,0.0,E,R,V*5E
$GPGGA,050940.100,3106.1849823,N,12126.7236341,E,5,06,1.0,5.297,M,11.052,M,0.0,0000*7F
$GPESA,050940.100,-2.392,+10.565,-0.078,+0.000,+0.000,+0.000*49
$GPESD,050940.100,0.078,0.098,0.233,0.124,0.144,0.086,0.000,0.000,0.000*78
$GPRMC,050940.200,A,3106.1855547,N,12126.7234815,E,21.14,212.87,270323,0.0,E,R,V*5A
$GPGGA,050940.200,3106.1855547,N,12126.7234815,E,5,06,1.0,5.300,M,11.052,M,0.0,0000*79
$GPESA,050940.200,-2.413,+10.603,-0.060,+0.000,+0.000,+0.000*4E
$GPESD,050940.200,0.077,0.097,0.232,0.124,0.144,0.086,0.000,0.000,0.000*7A
$GPRMC,050940.300,A,3106.1861351,N,12126.7233256,E,21.35,212.93,270323,0.0,E,R,V*51
$GPGGA,050940.300,3106.1861351,N,12126.7233256,E,5,06,1.0,5.308,M,11.052,M,0.0,0000*7C
$GPESA,050940.300,-2.429,+10.711,-0.060,+0.000,+0.000,+0.000*44
$GPESD,050940.300,0.077,0.097,0.232,0.124,0.144,0.086,0.000,0.000,0.000*7B
$GPRMC,050940.400,A,3106.1867210,N,12126.7231736,E,21.52,213.37,270323,0.0,E,R,V*5B
$GPGGA,050940.400,3106.1867210,N,12126.7231736,E,5,06,1.0,5.304,M,11.052,M,0.0,0000*74
$GPESA,050940.400,-2.397,+10.807,-0.055,+0.000,+0.000,+0.000*4F
$GPESD,050940.400,0.077,0.096,0.231,0.124,0.144,0.086,0.000,0.000,0.000*7E
$GPRMC,050940.500,A,3106.1873027,N,12126.7230229,E,21.52,213.33,270323,0.0,E,R,V*57
$GPGGA,050940.500,3106.1873027,N,12126.7230229,E,5,06,1.0,5.296,M,11.052,M,0.0,0000*76
$GPESA,050940.500,-2.400,+10.807,-0.059,+0.000,+0.000,+0.000*4B
$GPESD,050940.500,0.076,0.096,0.230,0.124,0.144,0.086,0.000,0.000,0.000*7F
$GPRMC,050940.600,A,3106.1878859,N,12126.7228697,E,21.61,213.23,270323,0.0,E,R,V*57
$GPGGA,050940.600,3106.1878859,N,12126.7228697,E,5,06,1.0,5.295,M,11.052,M,0.0,0000*74
$GPESA,050940.600,-2.437,+10.848,-0.032,+0.000,+0.000,+0.000*4A
$GPESD,050940.600,0.076,0.096,0.229,0.124,0.144,0.086,0.000,0.000,0.000*74
$GPRMC,050940.700,A,3106.1884696,N,12126.7227182,E,21.58,213.40,270323,0.0,E,R,V*5B
$GPGGA,050940.700,3106.1884696,N,12126.7227182,E,5,06,1.0,5.300,M,11.052,M,0.0,0000*7A
$GPESA,050940.700,-2.406,+10.838,-0.042,+0.000,+0.000,+0.000*49
$GPESD,050940.700,0.076,0.095,0.228,0.124,0.144,0.086,0.000,0.000,0.000*77
$GPRMC,050940.800,A,3106.1890627,N,12126.7225633,E,21.65,213.50,270323,0.0,E,R,V*5B
$GPGGA,050940.800,3106.1890627,N,12126.7225633,E,5,06,1.0,5.313,M,11.052,M,0.0,0000*77
$GPESA,050940.800,-2.403,+10.878,-0.041,+0.000,+0.000,+0.000*44
$GPESD,050940.800,0.076,0.095,0.227,0.124,0.144,0.086,0.000,0.000,0.000*77
$GPRMC,050940.900,A,3106.1896502,N,12126.7224121,E,21.75,213.41,270323,0.0,E,R,V*5C
$GPGGA,050940.900,3106.1896502,N,12126.7224121,E,5,06,1.0,5.303,M,11.052,M,0.0,0000*70
$GPESA,050940.900,-2.418,+10.924,-0.053,+0.000,+0.000,+0.000*44
$GPESD,050940.900,0.075,0.095,0.226,0.124,0.144,0.086,0.000,0.000,0.000*74
$GPRMC,050941.000,A,3106.1902430,N,12126.7222586,E,21.73,213.54,270323,0.0,E,R,V*55
$GPGGA,050941.000,3106.1902430,N,12126.7222586,E,5,06,1.0,5.302,M,11.052,M,0.0,0000*7A
$GPESA,050941.000,-2.398,+10.916,-0.054,+0.000,+0.000,+0.000*45
$GPESD,050941.000,0.075,0.094,0.225,0.124,0.144,0.086,0.000,0.000,0.000*7E
$GPRMC,050941.100,A,3106.1908271,N,12126.7221100,E,21.81,213.32,270323,0.0,E,R,V*59
$GPGGA,050941.100,3106.1908271,N,12126.7221100,E,5,06,1.0,5.294,M,11.052,M,0.0,0000*75
$GPESA,050941.100,-2.432,+10.955,-0.064,+0.000,+0.000,+0.000*47
$GPESD,050941.100,0.075,0.094,0.225,0.124,0.144,0.086,0.000,0.000,0.000*7F
$GPRMC,050941.200,A,3106.1914301,N,12126.7219492,E,21.75,213.25,270323,0.0,E,R,V*59
$GPGGA,050941.200,3106.1914301,N,12126.7219492,E,5,06,1.0,5.332,M,11.052,M,0.0,0000*75
$GPESA,050941.200,-2.430,+10.922,-0.070,+0.000,+0.000,+0.000*43
$GPESD,050941.200,0.074,0.094,0.224,0.124,0.144,0.086,0.000,0.000,0.000*7C
$GPRMC,050941.300,A,3106.1920203,N,12126.7218014,E,21.74,213.77,270323,0.0,E,R,V*51
$GPGGA,050941.300,3106.1920203,N,12126.7218014,E,5,06,1.0,5.315,M,11.052,M,0.0,0000*7E
$GPESA,050941.300,-2.365,+10.933,-0.065,+0.000,+0.000,+0.000*41
$GPESD,050941.300,0.074,0.093,0.223,0.124,0.144,0.086,0.000,0.000,0.000*7D
$GPRMC,050941.400,A,3106.1926098,N,12126.7216547,E,21.73,214.02,270323,0.0,E,R,V*5F
$GPGGA,050941.400,3106.1926098,N,12126.7216547,E,5,06,1.0,5.315,M,11.052,M,0.0,0000*72
$GPESA,050941.400,-2.351,+10.927,-0.029,+0.000,+0.000,+0.000*4C
$GPESD,050941.400,0.074,0.093,0.222,0.124,0.144,0.087,0.000,0.000,0.000*7A
$GPRMC,050941.500,A,3106.1932111,N,12126.7215051,E,21.60,214.39,270323,0.0,E,R,V*50
$GPGGA,050941.500,3106.1932111,N,12126.7215051,E,5,06,1.0,5.328,M,11.052,M,0.0,0000*79
$GPESA,050941.500,-2.280,+10.877,-0.047,+0.000,+0.000,+0.000*4C
$GPESD,050941.500,0.074,0.093,0.221,0.132,0.153,0.087,0.000,0.000,0.000*79
$GPRMC,050941.600,A,3106.1937894,N,12126.7213580,E,21.75,213.96,270323,0.0,E,R,V*5B
$GPGGA,050941.600,3106.1937894,N,12126.7213580,E,5,06,1.0,5.309,M,11.052,M,0.0,0000*77
$GPESA,050941.600,-2.356,+10.937,-0.038,+0.000,+0.000,+0.000*48
$GPESD,050941.600,0.073,0.092,0.220,0.132,0.153,0.087,0.000,0.000,0.000*7D
$GPRMC,050941.700,A,3106.1943860,N,12126.7212031,E,21.77,213.52,270323,0.0,E,R,V*56
$GPGGA,050941.700,3106.1943860,N,12126.7212031,E,5,06,1.0,5.332,M,11.052,M,0.0,0000*78
$GPESA,050941.700,-2.425,+10.935,-0.019,+0.000,+0.000,+0.000*4B
$GPESD,050941.700,0.073,0.092,0.220,0.132,0.153,0.087,0.000,0.000,0.000*7C
$GPRMC,050941.800,A,3106.1949694,N,12126.7210588,E,21.48,214.21,270323,0.0,E,R,V*5C
$GPGGA,050941.800,3106.1949694,N,12126.7210588,E,5,06,1.0,5.329,M,11.052,M,0.0,0000*77
$GPESA,050941.800,-2.300,+10.806,-0.026,+0.000,+0.000,+0.000*49
$GPESD,050941.800,0.073,0.092,0.219,0.150,0.173,0.087,0.000,0.000,0.000*7F
$GPRMC,050941.900,A,3106.1955543,N,12126.7209161,E,21.54,214.33,270323,0.0,E,R,V*5C
$GPGGA,050941.900,3106.1955543,N,12126.7209161,E,5,06,1.0,5.321,M,11.052,M,0.0,0000*71
$GPESA,050941.900,-2.296,+10.841,-0.019,+0.000,+0.000,+0.000*49
$GPESD,050941.900,0.073,0.091,0.218,0.124,0.144,0.087,0.000,0.000,0.000*7B
$GPRMC,050942.000,A,3106.1961450,N,12126.7207687,E,21.61,214.19,270323,0.0,E,R,V*5D
$GPGGA,050942.000,3106.1961450,N,12126.7207687,E,5,06,1.0,5.333,M,11.052,M,0.0,0000*7D
$GPESA,050942.000,-2.322,+10.870,-0.019,+0.000,+0.000,+0.000*4F
$GPESD,050942.000,0.072,0.091,0.217,0.150,0.173,0.087,0.000,0.000,0.000*78
$GPRMC,050942.100,A,3106.1967362,N,12126.7206149,E,21.47,213.91,270323,0.0,E,R,V*5B
$GPGGA,050942.100,3106.1967362,N,12126.7206149,E,5,06,1.0,5.361,M,11.052,M,0.0,0000*7F
$GPESA,050942.100,-2.344,+10.791,-0.015,+0.000,+0.000,+0.000*42
$GPESD,050942.100,0.072,0.091,0.216,0.124,0.144,0.087,0.000,0.000,0.000*7F
$GPRMC,050942.200,A,3106.1973210,N,12126.7204701,E,21.45,214.05,270323,0.0,E,R,V*59
$GPGGA,050942.200,3106.1973210,N,12126.7204701,E,5,06,1.0,5.363,M,11.052,M,0.0,0000*77
$GPESA,050942.200,-2.299,+10.791,-0.062,+0.000,+0.000,+0.000*40
$GPESD,050942.200,0.072,0.090,0.216,0.124,0.144,0.087,0.000,0.000,0.000*7D
$GPRMC,050942.300,A,3106.1979003,N,12126.7203282,E,21.27,214.11,270323,0.0,E,R,V*5A
$GPGGA,050942.300,3106.1979003,N,12126.7203282,E,5,06,1.0,5.357,M,11.052,M,0.0,0000*72
$GPESA,050942.300,-2.271,+10.705,-0.064,+0.000,+0.000,+0.000*4C
$GPESD,050942.300,0.072,0.090,0.215,0.124,0.144,0.087,0.000,0.000,0.000*7F
$GPRMC,050942.400,A,3106.1984782,N,12126.7201862,E,21.22,214.71,270323,0.0,E,R,V*54
$GPGGA,050942.400,3106.1984782,N,12126.7201862,E,5,06,1.0,5.364,M,11.052,M,0.0,0000*7F
$GPESA,050942.400,-2.210,+10.693,-0.027,+0.000,+0.000,+0.000*45
$GPESD,050942.400,0.071,0.090,0.214,0.107,0.139,0.087,0.000,0.000,0.000*71
$GPRMC,050942.500,A,3106.1990556,N,12126.7200409,E,21.04,214.54,270323,0.0,E,R,V*58
$GPGGA,050942.500,3106.1990556,N,12126.7200409,E,5,06,1.0,5.390,M,11.052,M,0.0,0000*7B
$GPESA,050942.500,-2.250,+10.589,+0.042,+0.000,+0.000,+0.000*4D
$GPESD,050942.500,0.071,0.090,0.213,0.124,0.144,0.087,0.000,0.000,0.000*7C
$GPRMC,050942.600,A,3106.1996298,N,12126.7199043,E,21.08,214.96,270323,0.0,E,R,V*53
$GPGGA,050942.600,3106.1996298,N,12126.7199043,E,5,06,1.0,5.393,M,11.052,M,0.0,0000*71
$GPESA,050942.600,-2.193,+10.619,+0.027,+0.000,+0.000,+0.000*4B
$GPESD,050942.600,0.071,0.089,0.213,0.124,0.144,0.087,0.000,0.000,0.000*77
$GPRMC,050942.700,A,3106.2002097,N,12126.7197646,E,21.10,214.73,270323,0.0,E,R,V*57
$GPGGA,050942.700,3106.2002097,N,12126.7197646,E,5,06,1.0,5.391,M,11.052,M,0.0,0000*75
$GPESA,050942.700,-2.197,+10.629,-0.022,+0.000,+0.000,+0.000*4E
$GPESD,050942.700,0.071,0.089,0.212,0.124,0.144,0.087,0.000,0.000,0.000*77
$GPRMC,050942.800,A,3106.2007773,N,12126.7196281,E,20.96,215.04,270323,0.0,E,R,V*50
$GPGGA,050942.800,3106.2007773,N,12126.7196281,E,5,06,1.0,5.377,M,11.052,M,0.0,0000*74
$GPESA,050942.800,-2.137,+10.568,-0.035,+0.000,+0.000,+0.000*4B
$GPESD,050942.800,0.070,0.089,0.211,0.107,0.139,0.087,0.000,0.000,0.000*71
$GPRMC,050942.900,A,3106.2013480,N,12126.7194888,E,20.79,214.51,270323,0.0,E,R,V*5A
$GPGGA,050942.900,3106.2013480,N,12126.7194888,E,5,06,1.0,5.403,M,11.052,M,0.0,0000*7A
$GPESA,050942.900,-2.173,+10.472,-0.057,+0.000,+0.000,+0.000*44
$GPESD,050942.900,0.070,0.088,0.210,0.124,0.144,0.087,0.000,0.000,0.000*7B
$GPRMC,050943.000,A,3106.2019155,N,12126.7193503,E,20.67,214.48,270323,0.0,E,R,V*5B
$GPGGA,050943.000,3106.2019155,N,12126.7193503,E,5,06,1.0,5.417,M,11.052,M,0.0,0000*79
$GPESA,050943.000,-2.164,+10.411,-0.056,+0.000,+0.000,+0.000*4E
$GPESD,050943.000,0.070,0.088,0.210,0.124,0.144,0.087,0.000,0.000,0.000*73
$GPRMC,050943.100,A,3106.2024770,N,12126.7192132,E,20.47,214.49,270323,0.0,E,R,V*51
$GPGGA,050943.100,3106.2024770,N,12126.7192132,E,5,06,1.0,5.433,M,11.051,M,0.0,0000*75
$GPESA,050943.100,-2.165,+10.307,-0.014,+0.000,+0.000,+0.000*48
$GPESD,050943.100,0.070,0.088,0.209,0.124,0.144,0.087,0.000,0.000,0.000*7A
$GPRMC,050943.200,A,3106.2030379,N,12126.7190748,E,20.48,214.45,270323,0.0,E,R,V*50
$GPGGA,050943.200,3106.2030379,N,12126.7190748,E,5,06,1.0,5.443,M,11.051,M,0.0,0000*70
$GPESA,050943.200,-2.170,+10.308,-0.015,+0.000,+0.000,+0.000*41
$GPESD,050943.200,0.070,0.088,0.208,0.124,0.144,0.087,0.000,0.000,0.000*78
$GPRMC,050943.300,A,3106.2035975,N,12126.7189425,E,20.35,214.97,270323,0.0,E,R,V*57
$GPGGA,050943.300,3106.2035975,N,12126.7189425,E,5,06,1.0,5.446,M,11.051,M,0.0,0000*77
$GPESA,050943.300,-2.096,+10.257,-0.009,+0.000,+0.000,+0.000*4F
$GPESD,050943.300,0.069,0.087,0.208,0.124,0.144,0.087,0.000,0.000,0.000*7E
$GPRMC,050943.400,A,3106.2041530,N,12126.7188062,E,20.34,214.49,270323,0.0,E,R,V*5A
$GPGGA,050943.400,3106.2041530,N,12126.7188062,E,5,06,1.0,5.437,M,11.051,M,0.0,0000*7E
$GPESA,050943.400,-2.151,+10.240,-0.015,+0.000,+0.000,+0.000*49
$GPESD,050943.400,0.069,0.087,0.208,0.110,0.139,0.093,0.000,0.000,0.000*71
$GPRMC,050943.500,A,3106.2047123,N,12126.7186697,E,20.28,214.51,270323,0.0,E,R,V*5D
$GPGGA,050943.500,3106.2047123,N,12126.7186697,E,5,06,1.0,5.462,M,11.051,M,0.0,0000*7D
$GPESA,050943.500,-2.140,+10.210,-0.018,+0.000,+0.000,+0.000*40
$GPESD,050943.500,0.069,0.086,0.207,0.107,0.139,0.087,0.000,0.000,0.000*7D
$GPRMC,050943.600,A,3106.2052641,N,12126.7185418,E,20.15,214.51,270323,0.0,E,R,V*51
$GPGGA,050943.600,3106.2052641,N,12126.7185418,E,5,06,1.0,5.455,M,11.051,M,0.0,0000*7B
$GPESA,050943.600,-2.102,+10.148,-0.062,+0.000,+0.000,+0.000*46
$GPESD,050943.600,0.069,0.086,0.206,0.107,0.139,0.087,0.000,0.000,0.000*7F
$GPRMC,050943.700,A,3106.2058154,N,12126.7184052,E,20.07,213.78,270323,0.0,E,R,V*5D
$GPGGA,050943.700,3106.2058154,N,12126.7184052,E,5,06,1.0,5.450,M,11.051,M,0.0,0000*7D
$GPESA,050943.700,-2.159,+10.097,-0.103,+0.000,+0.000,+0.000*4C
$GPESD,050943.700,0.068,0.085,0.206,0.110,0.139,0.093,0.000,0.000,0.000*7F
$GPRMC,050943.800,A,3106.2063633,N,12126.7182737,E,20.05,214.68,270323,0.0,E,R,V*5A
$GPGGA,050943.800,3106.2063633,N,12126.7182737,E,5,06,1.0,5.462,M,11.051,M,0.0,0000*7F
$GPESA,050943.800,-2.068,+10.107,-0.068,+0.000,+0.000,+0.000*44
$GPESD,050943.800,0.068,0.085,0.204,0.107,0.139,0.087,0.000,0.000,0.000*71
$GPRMC,050943.900,A,3106.2068985,N,12126.7181536,E,19.74,215.28,270323,0.0,E,R,V*5B
$GPGGA,050943.900,3106.2068985,N,12126.7181536,E,5,06,1.0,5.439,M,11.051,M,0.0,0000*79
$GPESA,050943.900,-1.993,+9.959,-0.016,+0.000,+0.000,+0.000*79
$GPESD,050943.900,0.068,0.085,0.204,0.107,0.139,0.087,0.000,0.000,0.000*70
$GPRMC,050944.000,A,3106.2074347,N,12126.7180299,E,19.59,215.79,270323,0.0,E,R,V*54
$GPGGA,050944.000,3106.2074347,N,12126.7180299,E,5,06,1.0,5.445,M,11.051,M,0.0,0000*76
$GPESA,050944.000,-1.931,+9.890,+0.010,+0.000,+0.000,+0.000*7B
$GPESD,050944.000,0.068,0.085,0.203,0.107,0.139,0.087,0.000,0.000,0.000*79
$GPRMC,050944.100,A,3106.2079810,N,12126.7179004,E,19.82,215.76,270323,0.0,E,R,V*58
$GPGGA,050944.100,3106.2079810,N,12126.7179004,E,5,06,1.0,5.469,M,11.051,M,0.0,0000*7D
$GPESA,050944.100,-1.978,+10.005,+0.044,+0.000,+0.000,+0.000*4A
$GPESD,050944.100,0.067,0.084,0.202,0.113,0.151,0.087,0.000,0.000,0.000*7C
$GPRMC,050944.200,A,3106.2085214,N,12126.7177779,E,19.76,215.76,270323,0.0,E,R,V*5E
$GPGGA,050944.200,3106.2085214,N,12126.7177779,E,5,06,1.0,5.460,M,11.051,M,0.0,0000*79
$GPESA,050944.200,-1.951,+9.978,+0.008,+0.000,+0.000,+0.000*71
$GPESD,050944.200,0.067,0.084,0.201,0.107,0.139,0.087,0.000,0.000,0.000*77
$GPRMC,050944.300,A,3106.2090639,N,12126.7176515,E,19.85,215.36,270323,0.0,E,R,V*51
$GPGGA,050944.300,3106.2090639,N,12126.7176515,E,5,06,1.0,5.464,M,11.051,M,0.0,0000*7A
$GPESA,050944.300,-1.996,+10.016,-0.012,+0.000,+0.000,+0.000*4F
$GPESD,050944.300,0.067,0.084,0.201,0.107,0.139,0.087,0.000,0.000,0.000*76
$GPRMC,050944.400,A,3106.2096011,N,12126.7175270,E,19.42,215.86,270323,0.0,E,R,V*5B
$GPGGA,050944.400,3106.2096011,N,12126.7175270,E,5,06,1.0,5.470,M,11.051,M,0.0,0000*75
$GPESA,050944.400,-1.885,+9.810,-0.029,+0.000,+0.000,+0.000*75
$GPESD,050944.400,0.067,0.084,0.200,0.108,0.140,0.087,0.000,0.000,0.000*71
$GPRMC,050944.500,A,3106.2101215,N,12126.7174193,E,19.00,216.36,270323,0.0,E,R,V*52
$GPGGA,050944.500,3106.2101215,N,12126.7174193,E,5,06,1.0,5.462,M,11.051,M,0.0,0000*71
$GPESA,050944.500,-1.742,+9.620,-0.104,+0.000,+0.000,+0.000*73
$GPESD,050944.500,0.067,0.083,0.200,0.126,0.173,0.087,0.000,0.000,0.000*7B
$GPRMC,050944.600,A,3106.2106486,N,12126.7173124,E,19.38,216.56,270323,0.0,E,R,V*5C
$GPGGA,050944.600,3106.2106486,N,12126.7173124,E,5,06,1.0,5.467,M,11.051,M,0.0,0000*77
$GPESA,050944.600,-1.768,+9.813,-0.080,+0.000,+0.000,+0.000*7B
$GPESD,050944.600,0.066,0.083,0.199,0.108,0.141,0.087,0.000,0.000,0.000*77
$GPRMC,050944.700,A,3106.2111801,N,12126.7171972,E,19.22,216.58,270323,0.0,E,R,V*54
$GPGGA,050944.700,3106.2111801,N,12126.7171972,E,5,06,1.0,5.476,M,11.051,M,0.0,0000*7A
$GPESA,050944.700,-1.793,+9.724,-0.006,+0.000,+0.000,+0.000*7B
$GPESD,050944.700,0.066,0.083,0.198,0.107,0.139,0.087,0.000,0.000,0.000*77
$GPRMC,050944.800,A,3106.2117066,N,12126.7170859,E,19.03,217.38,270323,0.0,E,R,V*59
$GPGGA,050944.800,3106.2117066,N,12126.7170859,E,5,06,1.0,5.489,M,11.051,M,0.0,0000*73
$GPESA,050944.800,-1.679,+9.647,-0.011,+0.000,+0.000,+0.000*73
$GPESD,050944.800,0.066,0.083,0.198,0.107,0.139,0.086,0.000,0.000,0.000*79
$GPRMC,050944.900,A,3106.2122308,N,12126.7169831,E,18.98,218.29,270323,0.0,E,R,V*5F
$GPGGA,050944.900,3106.2122308,N,12126.7169831,E,5,06,1.0,5.505,M,11.051,M,0.0,0000*7C
$GPESA,050944.900,-1.566,+9.638,-0.008,+0.000,+0.000,+0.000*7F
$GPESD,050944.900,0.066,0.082,0.197,0.107,0.139,0.086,0.000,0.000,0.000*76
$GPRMC,050945.000,A,3106.2127507,N,12126.7168819,E,18.85,217.97,270323,0.0,E,R,V*56
$GPGGA,050945.000,3106.2127507,N,12126.7168819,E,5,06,1.0,5.516,M,11.051,M,0.0,0000*71
$GPESA,050945.000,-1.610,+9.563,+0.018,+0.000,+0.000,+0.000*7F
$GPESD,050945.000,0.066,0.082,0.196,0.107,0.139,0.086,0.000,0.000,0.000*7F
$GPRMC,050945.100,A,3106.2132633,N,12126.7167827,E,18.84,217.59,270323,0.0,E,R,V*56
$GPGGA,050945.100,3106.2132633,N,12126.7167827,E,5,06,1.0,5.500,M,11.051,M,0.0,0000*75
$GPESA,050945.100,-1.628,+9.553,-0.025,+0.000,+0.000,+0.000*7E
$GPESD,050945.100,0.065,0.082,0.196,0.107,0.139,0.086,0.000,0.000,0.000*7D
$GPRMC,050945.200,A,3106.2137907,N,12126.7166786,E,18.77,218.35,270323,0.0,E,R,V*54
$GPGGA,050945.200,3106.2137907,N,12126.7166786,E,5,06,1.0,5.526,M,11.051,M,0.0,0000*7A
$GPESA,050945.200,-1.536,+9.531,-0.017,+0.000,+0.000,+0.000*74
$GPESD,050945.200,0.065,0.082,0.195,0.124,0.144,0.086,0.000,0.000,0.000*76
$GPRMC,050945.300,A,3106.2142989,N,12126.7165898,E,18.54,218.86,270323,0.0,E,R,V*5B
$GPGGA,050945.300,3106.2142989,N,12126.7165898,E,5,06,1.0,5.511,M,11.051,M,0.0,0000*78
$GPESA,050945.300,-1.465,+9.424,-0.002,+0.000,+0.000,+0.000*73
$GPESD,050945.300,0.065,0.081,0.195,0.124,0.144,0.086,0.000,0.000,0.000*74
$GPRMC,050945.400,A,3106.2148138,N,12126.7164940,E,18.51,219.42,270323,0.0,E,R,V*5D
$GPGGA,050945.400,3106.2148138,N,12126.7164940,E,5,06,1.0,5.535,M,11.051,M,0.0,0000*74
$GPESA,050945.400,-1.414,+9.415,+0.028,+0.000,+0.000,+0.000*7E
$GPESD,050945.400,0.065,0.081,0.194,0.124,0.144,0.086,0.000,0.000,0.000*72
$GPRMC,050945.500,A,3106.2153198,N,12126.7164067,E,18.45,219.43,270323,0.0,E,R,V*54
$GPGGA,050945.500,3106.2153198,N,12126.7164067,E,5,06,1.0,5.518,M,11.051,M,0.0,0000*76
$GPESA,050945.500,-1.372,+9.391,-0.030,+0.000,+0.000,+0.000*7C
$GPESD,050945.500,0.065,0.081,0.193,0.124,0.144,0.087,0.000,0.000,0.000*75
$GPRMC,050945.600,A,3106.2158293,N,12126.7163018,E,18.33,219.24,270323,0.0,E,R,V*5B
$GPGGA,050945.600,3106.2158293,N,12126.7163018,E,5,06,1.0,5.558,M,11.051,M,0.0,0000*7D
$GPESA,050945.600,-1.426,+9.321,+0.032,+0.000,+0.000,+0.000*76
$GPESD,050945.600,0.064,0.080,0.194,0.128,0.144,0.093,0.000,0.000,0.000*78
$GPRMC,050945.700,A,3106.2163380,N,12126.7162259,E,18.39,219.36,270323,0.0,E,R,V*5E
$GPGGA,050945.700,3106.2163380,N,12126.7162259,E,5,06,1.0,5.551,M,11.051,M,0.0,0000*78
$GPESA,050945.700,-1.352,+9.366,-0.068,+0.000,+0.000,+0.000*79
$GPESD,050945.700,0.064,0.080,0.193,0.124,0.144,0.087,0.000,0.000,0.000*77
$GPRMC,050945.800,A,3106.2168383,N,12126.7161423,E,18.08,219.51,270323,0.0,E,R,V*52
$GPGGA,050945.800,3106.2168383,N,12126.7161423,E,5,06,1.0,5.547,M,11.051,M,0.0,0000*70
$GPESA,050945.800,-1.366,+9.200,+0.018,+0.000,+0.000,+0.000*71
$GPESD,050945.800,0.064,0.080,0.192,0.124,0.144,0.087,0.000,0.000,0.000*79
$GPRMC,050945.900,A,3106.2173356,N,12126.7160522,E,17.98,219.34,270323,0.0,E,R,V*55
$GPGGA,050945.900,3106.2173356,N,12126.7160522,E,5,06,1.0,5.554,M,11.051,M,0.0,0000*70
$GPESA,050945.900,-1.367,+9.150,+0.001,+0.000,+0.000,+0.000*7F
$GPESD,050945.900,0.064,0.080,0.191,0.124,0.144,0.087,0.000,0.000,0.000*7B
$GPRMC,050946.000,A,3106.2178396,N,12126.7159723,E,18.20,220.05,270323,0.0,E,R,V*55
$GPGGA,050946.000,3106.2178396,N,12126.7159723,E,5,06,1.0,5.554,M,11.051,M,0.0,0000*74
$GPESA,050946.000,-1.217,+9.284,-0.125,+0.000,+0.000,+0.000*78
$GPESD,050946.000,0.064,0.080,0.191,0.124,0.144,0.087,0.000,0.000,0.000*71
$GPRMC,050946.100,A,3106.2183355,N,12126.7158886,E,17.90,219.61,270323,0.0,E,R,V*52
