$GPRMC,093604.400,A,3101.8264728,N,12126.6101637,E,0.06,0.00,200323,0.0,E,R,V*62
$GPGGA,093604.400,3101.8264728,N,12126.6101637,E,5,06,1.0,7.050,M,11.106,M,0.0,0000*7C
$GPESA,093604.400,+0.015,-0.012,+0.027,+0.000,+0.000,+0.000*7A
$GPESD,093604.400,0.704,0.726,1.762,0.086,0.125,0.249,0.000,0.000,0.000*7C
$GPRMC,093604.500,A,3101.8264750,N,12126.6101646,E,0.07,0.00,200323,0.0,E,R,V*6B
$GPGGA,093604.500,3101.8264750,N,12126.6101646,E,5,06,1.0,7.043,M,11.106,M,0.0,0000*76
$GPESA,093604.500,-0.007,+0.011,+0.032,+0.000,+0.000,+0.000*7F
$GPESD,093604.500,0.498,0.513,1.246,0.084,0.116,0.182,0.000,0.000,0.000*7A
$GPRMC,093604.600,A,3101.8264767,N,12126.6101641,E,0.04,0.00,200323,0.0,E,R,V*68
$GPGGA,093604.600,3101.8264767,N,12126.6101641,E,5,06,1.0,7.036,M,11.106,M,0.0,0000*74
$GPESA,093604.600,-0.012,+0.010,+0.013,+0.000,+0.000,+0.000*7A
$GPESD,093604.600,0.407,0.419,1.017,0.083,0.113,0.155,0.000,0.000,0.000*7A
$GPRMC,093604.700,A,3101.8264783,N,12126.6101634,E,0.01,0.00,200323,0.0,E,R,V*64
$GPGGA,093604.700,3101.8264783,N,12126.6101634,E,5,06,1.0,7.030,M,11.106,M,0.0,0000*7B
$GPESA,093604.700,+0.002,+0.002,-0.006,+0.000,+0.000,+0.000*7D
$GPESD,093604.700,0.352,0.363,0.881,0.083,0.111,0.140,0.000,0.000,0.000*76
$GPRMC,093604.800,A,3101.8264764,N,12126.6101660,E,0.06,0.00,200323,0.0,E,R,V*64
$GPGGA,093604.800,3101.8264764,N,12126.6101660,E,5,06,1.0,7.029,M,11.106,M,0.0,0000*74
$GPESA,093604.800,-0.008,-0.016,+0.022,+0.000,+0.000,+0.000*7D
$GPESD,093604.800,0.315,0.325,0.788,0.083,0.111,0.131,0.000,0.000,0.000*78
$GPRMC,093604.900,A,3101.8264740,N,12126.6101677,E,0.05,0.00,200323,0.0,E,R,V*66
$GPGGA,093604.900,3101.8264740,N,12126.6101677,E,5,06,1.0,7.031,M,11.106,M,0.0,0000*7C
$GPESA,093604.900,+0.000,-0.006,+0.024,+0.000,+0.000,+0.000*75
$GPESD,093604.900,0.287,0.296,0.719,0.083,0.110,0.124,0.000,0.000,0.000*77
$GPRMC,093605.000,A,3101.8264731,N,12126.6101682,E,0.05,0.00,200323,0.0,E,R,V*62
$GPGGA,093605.000,3101.8264731,N,12126.6101682,E,5,06,1.0,7.036,M,11.106,M,0.0,0000*7F
$GPESA,093605.000,+0.001,-0.003,+0.027,+0.000,+0.000,+0.000*7A
$GPESD,093605.000,0.266,0.274,0.666,0.083,0.110,0.119,0.000,0.000,0.000*7B
$GPRMC,093605.100,A,3101.8264725,N,12126.6101691,E,0.05,0.00,200323,0.0,E,R,V*64
$GPGGA,093605.100,3101.8264725,N,12126.6101691,E,5,06,1.0,7.048,M,11.106,M,0.0,0000*70
$GPESA,093605.100,-0.014,-0.000,+0.021,+0.000,+0.000,+0.000*7C
$GPESD,093605.100,0.249,0.257,0.623,0.083,0.109,0.115,0.000,0.000,0.000*73
$GPRMC,093605.200,A,3101.8264737,N,12126.6101702,E,0.04,0.00,200323,0.0,E,R,V*6E
$GPGGA,093605.200,3101.8264737,N,12126.6101702,E,5,06,1.0,7.051,M,11.106,M,0.0,0000*73
$GPESA,093605.200,+0.006,+0.017,+0.008,+0.000,+0.000,+0.000*71
$GPESD,093605.200,0.235,0.242,0.587,0.089,0.109,0.111,0.000,0.000,0.000*7C
$GPRMC,093605.300,A,3101.8264738,N,12126.6101712,E,0.05,0.00,200323,0.0,E,R,V*60
$GPGGA,093605.300,3101.8264738,N,12126.6101712,E,5,06,1.0,7.048,M,11.106,M,0.0,0000*74
$GPESA,093605.300,+0.025,+0.004,-0.002,+0.000,+0.000,+0.000*7F
$GPESD,093605.300,0.223,0.230,0.557,0.089,0.109,0.109,0.000,0.000,0.000*7B
$GPRMC,093605.400,A,3101.8264704,N,12126.6101723,E,0.04,0.00,200323,0.0,E,R,V*6B
$GPGGA,093605.400,3101.8264704,N,12126.6101723,E,5,06,1.0,7.058,M,11.106,M,0.0,0000*7F
$GPESA,093605.400,+0.017,-0.002,-0.006,+0.000,+0.000,+0.000*7D
$GPESD,093605.400,0.212,0.219,0.531,0.089,0.109,0.107,0.000,0.000,0.000*7B
$GPRMC,093605.500,A,3101.8264683,N,12126.6101750,E,0.03,0.00,200323,0.0,E,R,V*67
$GPGGA,093605.500,3101.8264683,N,12126.6101750,E,5,06,1.0,7.074,M,11.106,M,0.0,0000*7A
$GPESA,093605.500,+0.010,+0.010,-0.005,+0.000,+0.000,+0.000*7D
$GPESD,093605.500,0.203,0.210,0.509,0.089,0.109,0.105,0.000,0.000,0.000*7A
$GPRMC,093605.600,A,3101.8264671,N,12126.6101728,E,0.02,0.00,200323,0.0,E,R,V*67
$GPGGA,093605.600,3101.8264671,N,12126.6101728,E,5,06,1.0,7.080,M,11.106,M,0.0,0000*70
$GPESA,093605.600,-0.008,+0.005,+0.003,+0.000,+0.000,+0.000*75
$GPESD,093605.600,0.195,0.201,0.489,0.082,0.108,0.104,0.000,0.000,0.000*77
$GPRMC,093605.700,A,3101.8264675,N,12126.6101693,E,0.06,0.00,200323,0.0,E,R,V*67
$GPGGA,093605.700,3101.8264675,N,12126.6101693,E,5,06,1.0,7.079,M,11.106,M,0.0,0000*72
$GPESA,093605.700,-0.017,-0.007,+0.026,+0.000,+0.000,+0.000*79
$GPESD,093605.700,0.188,0.194,0.471,0.082,0.108,0.102,0.000,0.000,0.000*74
$GPRMC,093605.800,A,3101.8264674,N,12126.6101702,E,0.04,0.00,200323,0.0,E,R,V*62
$GPGGA,093605.800,3101.8264674,N,12126.6101702,E,5,06,1.0,7.076,M,11.106,M,0.0,0000*7A
$GPESA,093605.800,-0.004,+0.010,+0.017,+0.000,+0.000,+0.000*76
$GPESD,093605.800,0.182,0.188,0.455,0.082,0.108,0.101,0.000,0.000,0.000*79
$GPRMC,093605.900,A,3101.8264662,N,12126.6101710,E,0.02,0.00,200323,0.0,E,R,V*61
$GPGGA,093605.900,3101.8264662,N,12126.6101710,E,5,06,1.0,7.087,M,11.106,M,0.0,0000*71
$GPESA,093605.900,+0.003,+0.008,-0.004,+0.000,+0.000,+0.000*7B
$GPESD,093605.900,0.176,0.182,0.441,0.089,0.108,0.100,0.000,0.000,0.000*76
$GPRMC,093606.000,A,3101.8264658,N,12126.6101696,E,0.02,0.00,200323,0.0,E,R,V*6D
$GPGGA,093606.000,3101.8264658,N,12126.6101696,E,5,06,1.0,7.098,M,11.106,M,0.0,0000*73
$GPESA,093606.000,-0.011,+0.002,-0.005,+0.000,+0.000,+0.000*7F
$GPESD,093606.000,0.171,0.176,0.427,0.089,0.108,0.099,0.000,0.000,0.000*71
$GPRMC,093606.100,A,3101.8264659,N,12126.6101678,E,0.02,0.00,200323,0.0,E,R,V*6D
$GPGGA,093606.100,3101.8264659,N,12126.6101678,E,5,06,1.0,7.094,M,11.106,M,0.0,0000*7F
$GPESA,093606.100,-0.010,+0.002,-0.003,+0.000,+0.000,+0.000*79
$GPESD,093606.100,0.166,0.171,0.415,0.089,0.108,0.099,0.000,0.000,0.000*70
$GPRMC,093606.200,A,3101.8264646,N,12126.6101696,E,0.04,0.00,200323,0.0,E,R,V*66
$GPGGA,093606.200,3101.8264646,N,12126.6101696,E,5,06,1.0,7.097,M,11.106,M,0.0,0000*71
$GPESA,093606.200,+0.013,+0.015,-0.003,+0.000,+0.000,+0.000*79
$GPESD,093606.200,0.162,0.167,0.404,0.089,0.108,0.098,0.000,0.000,0.000*71
$GPRMC,093606.300,A,3101.8264631,N,12126.6101713,E,0.04,0.00,200323,0.0,E,R,V*6B
$GPGGA,093606.300,3101.8264631,N,12126.6101713,E,5,06,1.0,7.110,M,11.106,M,0.0,0000*72
$GPESA,093606.300,+0.018,+0.014,+0.001,+0.000,+0.000,+0.000*76
$GPESD,093606.300,0.158,0.162,0.394,0.089,0.108,0.097,0.000,0.000,0.000*7D
$GPRMC,093606.400,A,3101.8264621,N,12126.6101695,E,0.02,0.00,200323,0.0,E,R,V*64
$GPGGA,093606.400,3101.8264621,N,12126.6101695,E,5,06,1.0,7.117,M,11.106,M,0.0,0000*7C
$GPESA,093606.400,+0.005,-0.004,+0.010,+0.000,+0.000,+0.000*7A
$GPESD,093606.400,0.154,0.159,0.385,0.089,0.108,0.097,0.000,0.000,0.000*7E
$GPRMC,093606.500,A,3101.8264613,N,12126.6101680,E,0.05,0.00,200323,0.0,E,R,V*67
$GPGGA,093606.500,3101.8264613,N,12126.6101680,E,5,06,1.0,7.117,M,11.106,M,0.0,0000*78
$GPESA,093606.500,+0.002,-0.006,+0.025,+0.000,+0.000,+0.000*78
$GPESD,093606.500,0.150,0.155,0.376,0.089,0.108,0.096,0.000,0.000,0.000*7A
$GPRMC,093606.600,A,3101.8264621,N,12126.6101652,E,0.03,0.00,200323,0.0,E,R,V*6C
$GPGGA,093606.600,3101.8264621,N,12126.6101652,E,5,06,1.0,7.110,M,11.106,M,0.0,0000*72
$GPESA,093606.600,-0.010,+0.006,+0.010,+0.000,+0.000,+0.000*7E
$GPESD,093606.600,0.147,0.152,0.368,0.082,0.108,0.095,0.000,0.000,0.000*7F
$GPRMC,093606.700,A,3101.8264632,N,12126.6101633,E,0.04,0.00,200323,0.0,E,R,V*6F
$GPGGA,093606.700,3101.8264632,N,12126.6101633,E,5,06,1.0,7.093,M,11.106,M,0.0,0000*7C
$GPESA,093606.700,-0.009,+0.018,-0.001,+0.000,+0.000,+0.000*7E
$GPESD,093606.700,0.144,0.148,0.360,0.089,0.108,0.095,0.000,0.000,0.000*75
$GPRMC,093606.800,A,3101.8264608,N,12126.6101631,E,0.04,0.00,200323,0.0,E,R,V*6B
$GPGGA,093606.800,3101.8264608,N,12126.6101631,E,5,06,1.0,7.100,M,11.106,M,0.0,0000*73
$GPESA,093606.800,+0.008,+0.000,+0.018,+0.000,+0.000,+0.000*71
$GPESD,093606.800,0.141,0.145,0.353,0.089,0.108,0.095,0.000,0.000,0.000*72
$GPRMC,093606.900,A,3101.8264619,N,12126.6101629,E,0.07,0.00,200323,0.0,E,R,V*60
$GPGGA,093606.900,3101.8264619,N,12126.6101629,E,5,06,1.0,7.107,M,11.106,M,0.0,0000*7C
$GPESA,093606.900,-0.019,+0.004,+0.033,+0.000,+0.000,+0.000*7B
$GPESD,093606.900,0.138,0.143,0.346,0.089,0.108,0.094,0.000,0.000,0.000*7E
$GPRMC,093607.000,A,3101.8264626,N,12126.6101611,E,0.09,0.00,200323,0.0,E,R,V*61
$GPGGA,093607.000,3101.8264626,N,12126.6101611,E,5,06,1.0,7.099,M,11.106,M,0.0,0000*75
$GPESA,093607.000,+0.018,+0.010,+0.039,+0.000,+0.000,+0.000*7B
$GPESD,093607.000,0.136,0.140,0.339,0.089,0.108,0.094,0.000,0.000,0.000*73
$GPRMC,093607.100,A,3101.8264592,N,12126.6101611,E,0.04,0.00,200323,0.0,E,R,V*61
$GPGGA,093607.100,3101.8264592,N,12126.6101611,E,5,06,1.0,7.107,M,11.106,M,0.0,0000*7E
$GPESA,093607.100,+0.013,-0.002,+0.015,+0.000,+0.000,+0.000*7A
$GPESD,093607.100,0.133,0.137,0.333,0.089,0.108,0.094,0.000,0.000,0.000*7D
$GPRMC,093607.200,A,3101.8264594,N,12126.6101608,E,0.02,0.00,200323,0.0,E,R,V*6A
$GPGGA,093607.200,3101.8264594,N,12126.6101608,E,5,06,1.0,7.115,M,11.106,M,0.0,0000*70
$GPESA,093607.200,+0.011,+0.002,+0.002,+0.000,+0.000,+0.000*7B
$GPESD,093607.200,0.131,0.135,0.327,0.082,0.108,0.093,0.000,0.000,0.000*77
$GPRMC,093607.300,A,3101.8264579,N,12126.6101620,E,0.03,0.00,200323,0.0,E,R,V*63
$GPGGA,093607.300,3101.8264579,N,12126.6101620,E,5,06,1.0,7.110,M,11.106,M,0.0,0000*7D
$GPESA,093607.300,-0.002,-0.004,+0.014,+0.000,+0.000,+0.000*79
$GPESD,093607.300,0.129,0.133,0.322,0.082,0.108,0.093,0.000,0.000,0.000*7C
$GPRMC,093607.400,A,3101.8264577,N,12126.6101615,E,0.05,0.00,200323,0.0,E,R,V*6A
$GPGGA,093607.400,3101.8264577,N,12126.6101615,E,5,06,1.0,7.101,M,11.106,M,0.0,0000*72
$GPESA,093607.400,+0.003,+0.002,+0.024,+0.000,+0.000,+0.000*7A
$GPESD,093607.400,0.127,0.131,0.317,0.082,0.108,0.093,0.000,0.000,0.000*71
$GPRMC,093607.500,A,3101.8264575,N,12126.6101594,E,0.08,0.00,200323,0.0,E,R,V*6E
$GPGGA,093607.500,3101.8264575,N,12126.6101594,E,5,06,1.0,7.096,M,11.106,M,0.0,0000*74
$GPESA,093607.500,-0.012,-0.002,+0.038,+0.000,+0.000,+0.000*76
$GPESD,093607.500,0.125,0.129,0.312,0.089,0.108,0.093,0.000,0.000,0.000*75
$GPRMC,093607.600,A,3101.8264577,N,12126.6101572,E,0.07,0.00,200323,0.0,E,R,V*68
$GPGGA,093607.600,3101.8264577,N,12126.6101572,E,5,06,1.0,7.100,M,11.106,M,0.0,0000*73
$GPESA,093607.600,-0.008,+0.004,+0.034,+0.000,+0.000,+0.000*72
$GPESD,093607.600,0.123,0.127,0.307,0.082,0.108,0.092,0.000,0.000,0.000*70
$GPRMC,093607.700,A,3101.8264579,N,12126.6101603,E,0.03,0.00,200323,0.0,E,R,V*66
$GPGGA,093607.700,3101.8264579,N,12126.6101603,E,5,06,1.0,7.099,M,11.106,M,0.0,0000*78
$GPESA,093607.700,+0.011,+0.008,+0.011,+0.000,+0.000,+0.000*76
$GPESD,093607.700,0.121,0.125,0.302,0.082,0.108,0.092,0.000,0.000,0.000*74
$GPRMC,093607.800,A,3101.8264578,N,12126.6101613,E,0.05,0.00,200323,0.0,E,R,V*6F
$GPGGA,093607.800,3101.8264578,N,12126.6101613,E,5,06,1.0,7.094,M,11.106,M,0.0,0000*7A
$GPESA,093607.800,+0.006,+0.007,+0.026,+0.000,+0.000,+0.000*74
$GPESD,093607.800,0.119,0.123,0.298,0.082,0.108,0.092,0.000,0.000,0.000*74
$GPRMC,093607.900,A,3101.8264565,N,12126.6101594,E,0.05,0.00,200323,0.0,E,R,V*6E
$GPGGA,093607.900,3101.8264565,N,12126.6101594,E,5,06,1.0,7.094,M,11.106,M,0.0,0000*7B
$GPESA,093607.900,-0.005,-0.007,+0.026,+0.000,+0.000,+0.000*76
$GPESD,093607.900,0.118,0.121,0.294,0.089,0.108,0.092,0.000,0.000,0.000*71
$GPRMC,093608.000,A,3101.8264553,N,12126.6101590,E,0.03,0.00,200323,0.0,E,R,V*6F
$GPGGA,093608.000,3101.8264553,N,12126.6101590,E,5,06,1.0,7.097,M,11.106,M,0.0,0000*7F
$GPESA,093608.000,-0.016,-0.003,+0.005,+0.000,+0.000,+0.000*77
$GPESD,093608.000,0.116,0.120,0.290,0.089,0.108,0.091,0.000,0.000,0.000*7F
$GPRMC,093608.100,A,3101.8264560,N,12126.6101597,E,0.04,0.00,200323,0.0,E,R,V*6E
$GPGGA,093608.100,3101.8264560,N,12126.6101597,E,5,06,1.0,7.094,M,11.106,M,0.0,0000*7A
$GPESA,093608.100,+0.007,+0.010,+0.019,+0.000,+0.000,+0.000*79
$GPESD,093608.100,0.114,0.118,0.286,0.089,0.108,0.091,0.000,0.000,0.000*70
$GPRMC,093608.200,A,3101.8264601,N,12126.6101597,E,0.03,0.00,200323,0.0,E,R,V*6E
$GPGGA,093608.200,3101.8264601,N,12126.6101597,E,5,06,1.0,7.085,M,11.106,M,0.0,0000*7D
$GPESA,093608.200,+0.005,+0.014,-0.004,+0.000,+0.000,+0.000*76
$GPESD,093608.200,0.113,0.116,0.282,0.089,0.108,0.091,0.000,0.000,0.000*7E
$GPRMC,093608.300,A,3101.8264598,N,12126.6101589,E,0.02,0.00,200323,0.0,E,R,V*62
$GPGGA,093608.300,3101.8264598,N,12126.6101589,E,5,06,1.0,7.074,M,11.106,M,0.0,0000*7E
$GPESA,093608.300,+0.002,+0.010,+0.002,+0.000,+0.000,+0.000*74
$GPESD,093608.300,0.111,0.115,0.279,0.082,0.108,0.091,0.000,0.000,0.000*71
$GPRMC,093608.400,A,3101.8264583,N,12126.6101590,E,0.05,0.00,200323,0.0,E,R,V*60
$GPGGA,093608.400,3101.8264583,N,12126.6101590,E,5,06,1.0,7.078,M,11.106,M,0.0,0000*77
$GPESA,093608.400,-0.004,+0.008,+0.023,+0.000,+0.000,+0.000*79
$GPESD,093608.400,0.110,0.114,0.275,0.089,0.108,0.091,0.000,0.000,0.000*71
$GPRMC,093608.500,A,3101.8264588,N,12126.6101590,E,0.06,0.00,200323,0.0,E,R,V*69
$GPGGA,093608.500,3101.8264588,N,12126.6101590,E,5,06,1.0,7.080,M,11.106,M,0.0,0000*7A
$GPESA,093608.500,-0.014,-0.012,+0.023,+0.000,+0.000,+0.000*74
$GPESD,093608.500,0.109,0.112,0.272,0.089,0.108,0.091,0.000,0.000,0.000*79
$GPRMC,093608.600,A,3101.8264564,N,12126.6101601,E,0.08,0.00,200323,0.0,E,R,V*6D
$GPGGA,093608.600,3101.8264564,N,12126.6101601,E,5,06,1.0,7.073,M,11.106,M,0.0,0000*7C
$GPESA,093608.600,-0.006,-0.011,+0.037,+0.000,+0.000,+0.000*72
$GPESD,093608.600,0.108,0.111,0.269,0.089,0.108,0.091,0.000,0.000,0.000*72
$GPRMC,093608.700,A,3101.8264556,N,12126.6101604,E,0.07,0.00,200323,0.0,E,R,V*67
$GPGGA,093608.700,3101.8264556,N,12126.6101604,E,5,06,1.0,7.073,M,11.106,M,0.0,0000*79
$GPESA,093608.700,-0.006,+0.000,+0.035,+0.000,+0.000,+0.000*77
$GPESD,093608.700,0.106,0.110,0.266,0.089,0.108,0.091,0.000,0.000,0.000*73
$GPRMC,093608.800,A,3101.8264574,N,12126.6101617,E,0.03,0.00,200323,0.0,E,R,V*6E
$GPGGA,093608.800,3101.8264574,N,12126.6101617,E,5,06,1.0,7.072,M,11.106,M,0.0,0000*75
$GPESA,093608.800,-0.006,+0.009,+0.009,+0.000,+0.000,+0.000*7E
$GPESD,093608.800,0.105,0.108,0.263,0.089,0.108,0.090,0.000,0.000,0.000*72
$GPRMC,093608.900,A,3101.8264570,N,12126.6101611,E,0.04,0.00,200323,0.0,E,R,V*6A
$GPGGA,093608.900,3101.8264570,N,12126.6101611,E,5,06,1.0,7.059,M,11.106,M,0.0,0000*7F
$GPESA,093608.900,-0.015,+0.003,+0.013,+0.000,+0.000,+0.000*7C
$GPESD,093608.900,0.104,0.107,0.260,0.089,0.108,0.090,0.000,0.000,0.000*7E
$GPRMC,093609.000,A,3101.8264542,N,12126.6101623,E,0.03,0.00,200323,0.0,E,R,V*65
$GPGGA,093609.000,3101.8264542,N,12126.6101623,E,5,06,1.0,7.057,M,11.106,M,0.0,0000*79
$GPESA,093609.000,-0.004,-0.006,+0.016,+0.000,+0.000,+0.000*72
$GPESD,093609.000,0.103,0.106,0.257,0.089,0.108,0.090,0.000,0.000,0.000*74
$GPRMC,093609.100,A,3101.8264540,N,12126.6101645,E,0.05,0.00,200323,0.0,E,R,V*60
$GPGGA,093609.100,3101.8264540,N,12126.6101645,E,5,06,1.0,7.063,M,11.106,M,0.0,0000*7D
$GPESA,093609.100,+0.011,-0.003,+0.025,+0.000,+0.000,+0.000*74
$GPESD,093609.100,0.102,0.105,0.255,0.089,0.108,0.090,0.000,0.000,0.000*75
$GPRMC,093609.200,A,3101.8264548,N,12126.6101663,E,0.06,0.00,200323,0.0,E,R,V*6C
$GPGGA,093609.200,3101.8264548,N,12126.6101663,E,5,06,1.0,7.060,M,11.106,M,0.0,0000*71
$GPESA,093609.200,+0.003,+0.018,+0.023,+0.000,+0.000,+0.000*7E
$GPESD,093609.200,0.101,0.104,0.252,0.089,0.108,0.090,0.000,0.000,0.000*73
$GPRMC,093609.300,A,3101.8264544,N,12126.6101669,E,0.05,0.00,200323,0.0,E,R,V*68
$GPGGA,093609.300,3101.8264544,N,12126.6101669,E,5,06,1.0,7.058,M,11.106,M,0.0,0000*7D
$GPESA,093609.300,-0.002,+0.005,+0.024,+0.000,+0.000,+0.000*73
$GPESD,093609.300,0.100,0.103,0.249,0.089,0.108,0.090,0.000,0.000,0.000*7E
$GPRMC,093609.400,A,3101.8264551,N,12126.6101671,E,0.05,0.00,200323,0.0,E,R,V*62
$GPGGA,093609.400,3101.8264551,N,12126.6101671,E,5,06,1.0,7.049,M,11.106,M,0.0,0000*77
$GPESA,093609.400,+0.002,+0.009,+0.022,+0.000,+0.000,+0.000*78
$GPESD,093609.400,0.099,0.102,0.247,0.089,0.108,0.090,0.000,0.000,0.000*77
$GPRMC,093609.500,A,3101.8264515,N,12126.6101672,E,0.07,0.00,200323,0.0,E,R,V*62
$GPGGA,093609.500,3101.8264515,N,12126.6101672,E,5,06,1.0,7.046,M,11.106,M,0.0,0000*7A
$GPESA,093609.500,-0.008,-0.006,+0.033,+0.000,+0.000,+0.000*7C
$GPESD,093609.500,0.098,0.101,0.245,0.089,0.108,0.090,0.000,0.000,0.000*76
$GPRMC,093609.600,A,3101.8264524,N,12126.6101682,E,0.01,0.00,200323,0.0,E,R,V*6A
$GPGGA,093609.600,3101.8264524,N,12126.6101682,E,5,06,1.0,7.054,M,11.106,M,0.0,0000*77
$GPESA,093609.600,+0.003,+0.001,+0.001,+0.000,+0.000,+0.000*72
$GPESD,093609.600,0.097,0.100,0.242,0.089,0.108,0.090,0.000,0.000,0.000*7C
$GPRMC,093609.700,A,3101.8264534,N,12126.6101697,E,0.03,0.00,200323,0.0,E,R,V*6C
$GPGGA,093609.700,3101.8264534,N,12126.6101697,E,5,06,1.0,7.043,M,11.106,M,0.0,0000*75
$GPESA,093609.700,+0.010,-0.003,+0.007,+0.000,+0.000,+0.000*73
$GPESD,093609.700,0.096,0.099,0.240,0.089,0.108,0.090,0.000,0.000,0.000*7F
$GPRMC,093609.800,A,3101.8264511,N,12126.6101698,E,0.02,0.00,200323,0.0,E,R,V*6A
$GPGGA,093609.800,3101.8264511,N,12126.6101698,E,5,06,1.0,7.033,M,11.106,M,0.0,0000*75
$GPESA,093609.800,-0.007,+0.002,+0.009,+0.000,+0.000,+0.000*75
$GPESD,093609.800,0.095,0.098,0.238,0.089,0.108,0.090,0.000,0.000,0.000*7D
$GPRMC,093609.900,A,3101.8264510,N,12126.6101687,E,0.06,0.00,200323,0.0,E,R,V*60
$GPGGA,093609.900,3101.8264510,N,12126.6101687,E,5,06,1.0,7.031,M,11.106,M,0.0,0000*79
$GPESA,093609.900,-0.007,+0.007,+0.029,+0.000,+0.000,+0.000*73
$GPESD,093609.900,0.094,0.097,0.236,0.089,0.108,0.090,0.000,0.000,0.000*7C
$GPRMC,093610.000,A,3101.8264512,N,12126.6101687,E,0.05,0.00,200323,0.0,E,R,V*60
$GPGGA,093610.000,3101.8264512,N,12126.6101687,E,5,06,1.0,7.038,M,11.106,M,0.0,0000*73
$GPESA,093610.000,-0.005,+0.014,+0.019,+0.000,+0.000,+0.000*71
$GPESD,093610.000,0.093,0.096,0.234,0.089,0.108,0.090,0.000,0.000,0.000*79
$GPRMC,093610.100,A,3101.8264538,N,12126.6101692,E,0.13,0.00,200323,0.0,E,R,V*6A
$GPGGA,093610.100,3101.8264538,N,12126.6101692,E,5,06,1.0,7.038,M,11.106,M,0.0,0000*7E
$GPESA,093610.100,-0.028,+0.063,-0.007,+0.000,+0.000,+0.000*76
$GPESD,093610.100,0.093,0.096,0.232,0.089,0.108,0.089,0.000,0.000,0.000*76
$GPRMC,093610.200,A,3101.8264595,N,12126.6101636,E,0.23,0.00,200323,0.0,E,R,V*63
$GPGGA,093610.200,3101.8264595,N,12126.6101636,E,5,06,1.0,7.033,M,11.106,M,0.0,0000*7F
$GPESA,093610.200,-0.059,+0.102,+0.023,+0.000,+0.000,+0.000*75
$GPESD,093610.200,0.092,0.095,0.230,0.082,0.108,0.089,0.000,0.000,0.000*7E
$GPRMC,093610.300,A,3101.8264675,N,12126.6101607,E,0.35,0.00,200323,0.0,E,R,V*6A
$GPGGA,093610.300,3101.8264675,N,12126.6101607,E,5,06,1.0,7.037,M,11.106,M,0.0,0000*75
$GPESA,093610.300,-0.080,+0.159,+0.031,+0.000,+0.000,+0.000*7D
$GPESD,093610.300,0.091,0.094,0.228,0.082,0.108,0.089,0.000,0.000,0.000*74
$GPRMC,093610.400,A,3101.8264809,N,12126.6101538,E,0.55,0.00,200323,0.0,E,R,V*61
$GPGGA,093610.400,3101.8264809,N,12126.6101538,E,5,06,1.0,7.036,M,11.106,M,0.0,0000*79
$GPESA,093610.400,-0.119,+0.256,+0.016,+0.000,+0.000,+0.000*72
$GPESD,093610.400,0.090,0.093,0.226,0.082,0.108,0.089,0.000,0.000,0.000*7B
$GPRMC,093610.500,A,3101.8264995,N,12126.6101446,E,0.69,0.00,200323,0.0,E,R,V*63
$GPGGA,093610.500,3101.8264995,N,12126.6101446,E,5,06,1.0,7.034,M,11.106,M,0.0,0000*76
$GPESA,093610.500,-0.133,+0.332,+0.001,+0.000,+0.000,+0.000*7E
$GPESD,093610.500,0.090,0.092,0.224,0.082,0.108,0.089,0.000,0.000,0.000*79
$GPRMC,093610.600,A,3101.8265213,N,12126.6101313,E,0.90,0.00,200323,0.0,E,R,V*65
$GPGGA,093610.600,3101.8265213,N,12126.6101313,E,5,06,1.0,7.033,M,11.106,M,0.0,0000*71
$GPESA,093610.600,-0.196,+0.419,+0.012,+0.000,+0.000,+0.000*7E
$GPESD,093610.600,0.089,0.092,0.222,0.082,0.108,0.089,0.000,0.000,0.000*74
$GPRMC,093610.700,A,3101.8265433,N,12126.6101201,E,0.97,0.00,200323,0.0,E,R,V*65
$GPGGA,093610.700,3101.8265433,N,12126.6101201,E,5,06,1.0,7.036,M,11.106,M,0.0,0000*73
$GPESA,093610.700,-0.225,+0.446,+0.016,+0.000,+0.000,+0.000*7A
$GPESD,093610.700,0.088,0.091,0.221,0.082,0.108,0.089,0.000,0.000,0.000*74
$GPRMC,093610.800,A,3101.8265675,N,12126.6101089,E,1.17,0.00,200323,0.0,E,R,V*61
$GPGGA,093610.800,3101.8265675,N,12126.6101089,E,5,06,1.0,7.034,M,11.106,M,0.0,0000*7C
$GPESA,093610.800,-0.270,+0.540,+0.007,+0.000,+0.000,+0.000*72
$GPESD,093610.800,0.088,0.090,0.219,0.089,0.108,0.089,0.000,0.000,0.000*7A
$GPRMC,093610.900,A,3101.8265990,N,12126.6100938,E,1.39,0.00,200323,0.0,E,R,V*6A
$GPGGA,093610.900,3101.8265990,N,12126.6100938,E,5,06,1.0,7.029,M,11.106,M,0.0,0000*77
$GPESA,093610.900,-0.307,+0.644,+0.004,+0.000,+0.000,+0.000*76
$GPESD,093610.900,0.087,0.090,0.217,0.082,0.108,0.089,0.000,0.000,0.000*71
$GPRMC,093611.000,A,3101.8266415,N,12126.6100707,E,1.78,0.00,200323,0.0,E,R,V*66
$GPGGA,093611.000,3101.8266415,N,12126.6100707,E,5,06,1.0,7.023,M,11.106,M,0.0,0000*74
$GPESA,093611.000,-0.391,+0.828,+0.004,+0.000,+0.000,+0.000*75
$GPESD,093611.000,0.086,0.089,0.216,0.089,0.108,0.089,0.000,0.000,0.000*7A
$GPRMC,093611.100,A,3101.8266954,N,12126.6100436,E,2.19,192.29,200323,0.0,E,R,V*6B
$GPGGA,093611.100,3101.8266954,N,12126.6100436,E,5,06,1.0,7.020,M,11.106,M,0.0,0000*7F
$GPESA,093611.100,-0.474,+1.024,-0.023,+0.000,+0.000,+0.000*7E
$GPESD,093611.100,0.086,0.088,0.214,0.089,0.108,0.089,0.000,0.000,0.000*78
$GPRMC,093611.200,A,3101.8267544,N,12126.6100119,E,2.45,193.12,200323,0.0,E,R,V*6C
$GPGGA,093611.200,3101.8267544,N,12126.6100119,E,5,06,1.0,7.019,M,11.106,M,0.0,0000*72
$GPESA,093611.200,-0.523,+1.149,-0.013,+0.000,+0.000,+0.000*77
$GPESD,093611.200,0.085,0.088,0.212,0.089,0.108,0.089,0.000,0.000,0.000*7E
$GPRMC,093611.300,A,3101.8268201,N,12126.6099764,E,2.79,189.36,200323,0.0,E,R,V*6B
$GPGGA,093611.300,3101.8268201,N,12126.6099764,E,5,06,1.0,7.018,M,11.106,M,0.0,0000*76
$GPESA,093611.300,-0.639,+1.283,-0.017,+0.000,+0.000,+0.000*7F
$GPESD,093611.300,0.084,0.087,0.211,0.089,0.108,0.089,0.000,0.000,0.000*72
$GPRMC,093611.400,A,3101.8268918,N,12126.6099382,E,3.07,190.98,200323,0.0,E,R,V*67
$GPGGA,093611.400,3101.8268918,N,12126.6099382,E,5,06,1.0,7.015,M,11.106,M,0.0,0000*73
$GPESA,093611.400,-0.686,+1.422,+0.003,+0.000,+0.000,+0.000*72
$GPESD,093611.400,0.084,0.086,0.209,0.089,0.108,0.089,0.000,0.000,0.000*7D
$GPRMC,093611.500,A,3101.8269698,N,12126.6098955,E,3.30,190.14,200323,0.0,E,R,V*61
$GPGGA,093611.500,3101.8269698,N,12126.6098955,E,5,06,1.0,7.011,M,11.106,M,0.0,0000*71
$GPESA,093611.500,-0.744,+1.526,-0.037,+0.000,+0.000,+0.000*78
$GPESD,093611.500,0.083,0.086,0.208,0.089,0.108,0.089,0.000,0.000,0.000*7A
$GPRMC,093611.600,A,3101.8270583,N,12126.6098518,E,3.70,193.10,200323,0.0,E,R,V*65
$GPGGA,093611.600,3101.8270583,N,12126.6098518,E,5,06,1.0,7.001,M,11.106,M,0.0,0000*77
$GPESA,093611.600,-0.788,+1.731,-0.022,+0.000,+0.000,+0.000*7B
$GPESD,093611.600,0.083,0.085,0.207,0.089,0.108,0.089,0.000,0.000,0.000*75
$GPRMC,093611.700,A,3101.8271582,N,12126.6098031,E,3.96,192.56,200323,0.0,E,R,V*61
$GPGGA,093611.700,3101.8271582,N,12126.6098031,E,5,06,1.0,6.991,M,11.106,M,0.0,0000*79
$GPESA,093611.700,-0.855,+1.847,-0.008,+0.000,+0.000,+0.000*73
$GPESD,093611.700,0.082,0.085,0.205,0.089,0.108,0.089,0.000,0.000,0.000*77
$GPRMC,093611.800,A,3101.8272591,N,12126.6097522,E,4.18,195.72,200323,0.0,E,R,V*67
$GPGGA,093611.800,3101.8272591,N,12126.6097522,E,5,06,1.0,6.982,M,11.106,M,0.0,0000*7D
$GPESA,093611.800,-0.843,+1.980,-0.018,+0.000,+0.000,+0.000*70
$GPESD,093611.800,0.082,0.084,0.204,0.089,0.108,0.089,0.000,0.000,0.000*78
$GPRMC,093611.900,A,3101.8273669,N,12126.6096988,E,4.52,194.47,200323,0.0,E,R,V*67
$GPGGA,093611.900,3101.8273669,N,12126.6096988,E,5,06,1.0,6.987,M,11.106,M,0.0,0000*71
$GPESA,093611.900,-0.940,+2.126,-0.003,+0.000,+0.000,+0.000*7E
$GPESD,093611.900,0.081,0.084,0.202,0.089,0.108,0.089,0.000,0.000,0.000*7C
$GPRMC,093612.000,A,3101.8274841,N,12126.6096384,E,4.73,194.53,200323,0.0,E,R,V*6E
$GPGGA,093612.000,3101.8274841,N,12126.6096384,E,5,06,1.0,6.981,M,11.106,M,0.0,0000*78
$GPESA,093612.000,-0.978,+2.227,-0.026,+0.000,+0.000,+0.000*7A
$GPESD,093612.000,0.080,0.083,0.201,0.089,0.108,0.089,0.000,0.000,0.000*73
$GPRMC,093612.100,A,3101.8276058,N,12126.6095741,E,4.99,193.92,200323,0.0,E,R,V*6D
$GPGGA,093612.100,3101.8276058,N,12126.6095741,E,5,06,1.0,6.970,M,11.106,M,0.0,0000*7B
$GPESA,093612.100,-1.043,+2.344,-0.039,+0.000,+0.000,+0.000*71
$GPESD,093612.100,0.080,0.082,0.200,0.082,0.107,0.088,0.000,0.000,0.000*77
$GPRMC,093612.200,A,3101.8277346,N,12126.6095073,E,5.25,192.80,200323,0.0,E,R,V*61
$GPGGA,093612.200,3101.8277346,N,12126.6095073,E,5,06,1.0,6.970,M,11.106,M,0.0,0000*73
$GPESA,093612.200,-1.128,+2.457,-0.024,+0.000,+0.000,+0.000*77
$GPESD,093612.200,0.079,0.082,0.199,0.089,0.108,0.089,0.000,0.000,0.000*74
$GPRMC,093612.300,A,3101.8278709,N,12126.6094421,E,5.49,194.94,200323,0.0,E,R,V*6B
$GPGGA,093612.300,3101.8278709,N,12126.6094421,E,5,06,1.0,6.965,M,11.106,M,0.0,0000*74
$GPESA,093612.300,-1.127,+2.590,-0.023,+0.000,+0.000,+0.000*74
$GPESD,093612.300,0.079,0.081,0.197,0.082,0.107,0.088,0.000,0.000,0.000*7D
$GPRMC,093612.400,A,3101.8280135,N,12126.6093711,E,5.71,194.60,200323,0.0,E,R,V*65
$GPGGA,093612.400,3101.8280135,N,12126.6093711,E,5,06,1.0,6.947,M,11.106,M,0.0,0000*7A
$GPESA,093612.400,-1.181,+2.691,-0.023,+0.000,+0.000,+0.000*7D
$GPESD,093612.400,0.078,0.081,0.196,0.089,0.108,0.089,0.000,0.000,0.000*7F
$GPRMC,093612.500,A,3101.8281590,N,12126.6092941,E,5.92,193.51,200323,0.0,E,R,V*6C
$GPGGA,093612.500,3101.8281590,N,12126.6092941,E,5,06,1.0,6.940,M,11.106,M,0.0,0000*7C
$GPESA,093612.500,-1.253,+2.777,-0.028,+0.000,+0.000,+0.000*72
$GPESD,093612.500,0.078,0.080,0.195,0.082,0.107,0.088,0.000,0.000,0.000*79
$GPRMC,093612.600,A,3101.8283117,N,12126.6092135,E,6.12,194.60,200323,0.0,E,R,V*63
$GPGGA,093612.600,3101.8283117,N,12126.6092135,E,5,06,1.0,6.942,M,11.106,M,0.0,0000*7F
$GPESA,093612.600,-1.273,+2.881,+0.011,+0.000,+0.000,+0.000*79
$GPESD,093612.600,0.078,0.080,0.194,0.082,0.107,0.088,0.000,0.000,0.000*7B
$GPRMC,093612.700,A,3101.8284687,N,12126.6091317,E,6.34,193.40,200323,0.0,E,R,V*6B
$GPGGA,093612.700,3101.8284687,N,12126.6091317,E,5,06,1.0,6.936,M,11.106,M,0.0,0000*75
$GPESA,093612.700,-1.346,+2.969,-0.015,+0.000,+0.000,+0.000*7A
$GPESD,093612.700,0.077,0.079,0.193,0.082,0.107,0.088,0.000,0.000,0.000*74
$GPRMC,093612.800,A,3101.8286288,N,12126.6090494,E,6.44,193.57,200323,0.0,E,R,V*61
$GPGGA,093612.800,3101.8286288,N,12126.6090494,E,5,06,1.0,6.930,M,11.106,M,0.0,0000*78
$GPESA,093612.800,-1.360,+3.018,-0.026,+0.000,+0.000,+0.000*7F
$GPESD,093612.800,0.077,0.079,0.191,0.082,0.107,0.088,0.000,0.000,0.000*79
$GPRMC,093612.900,A,3101.8287922,N,12126.6089658,E,6.62,194.46,200323,0.0,E,R,V*63
$GPGGA,093612.900,3101.8287922,N,12126.6089658,E,5,06,1.0,6.919,M,11.106,M,0.0,0000*72
$GPESA,093612.900,-1.375,+3.118,-0.022,+0.000,+0.000,+0.000*7F
$GPESD,093612.900,0.076,0.079,0.190,0.082,0.107,0.088,0.000,0.000,0.000*78
$GPRMC,093613.000,A,3101.8289639,N,12126.6088797,E,6.81,194.65,200323,0.0,E,R,V*6F
$GPGGA,093613.000,3101.8289639,N,12126.6088797,E,5,06,1.0,6.917,M,11.106,M,0.0,0000*7C
$GPESA,093613.000,-1.409,+3.209,-0.018,+0.000,+0.000,+0.000*71
$GPESD,093613.000,0.076,0.078,0.189,0.082,0.107,0.088,0.000,0.000,0.000*79
$GPRMC,093613.100,A,3101.8291400,N,12126.6087892,E,6.99,194.00,200323,0.0,E,R,V*60
$GPGGA,093613.100,3101.8291400,N,12126.6087892,E,5,06,1.0,6.913,M,11.106,M,0.0,0000*7D
$GPESA,093613.100,-1.467,+3.283,-0.012,+0.000,+0.000,+0.000*70
$GPESD,093613.100,0.075,0.078,0.188,0.082,0.107,0.088,0.000,0.000,0.000*7A
$GPRMC,093613.200,A,3101.8293217,N,12126.6086958,E,7.25,193.67,200323,0.0,E,R,V*67
$GPGGA,093613.200,3101.8293217,N,12126.6086958,E,5,06,1.0,6.907,M,11.106,M,0.0,0000*7F
$GPESA,093613.200,-1.531,+3.400,-0.016,+0.000,+0.000,+0.000*78
$GPESD,093613.200,0.075,0.077,0.187,0.085,0.115,0.089,0.000,0.000,0.000*7C
$GPRMC,093613.300,A,3101.8295080,N,12126.6085984,E,7.47,193.01,200323,0.0,E,R,V*6A
$GPGGA,093613.300,3101.8295080,N,12126.6085984,E,5,06,1.0,6.898,M,11.106,M,0.0,0000*71
$GPESA,093613.300,-1.599,+3.492,-0.017,+0.000,+0.000,+0.000*71
$GPESD,093613.300,0.074,0.077,0.186,0.085,0.115,0.089,0.000,0.000,0.000*7D
$GPRMC,093613.400,A,3101.8296978,N,12126.6085002,E,7.60,193.09,200323,0.0,E,R,V*6A
$GPGGA,093613.400,3101.8296978,N,12126.6085002,E,5,06,1.0,6.901,M,11.106,M,0.0,0000*7D
$GPESA,093613.400,-1.625,+3.558,-0.021,+0.000,+0.000,+0.000*70
$GPESD,093613.400,0.074,0.076,0.185,0.085,0.115,0.089,0.000,0.000,0.000*78
$GPRMC,093613.500,A,3101.8298877,N,12126.6084015,E,7.63,192.90,200323,0.0,E,R,V*6E
$GPGGA,093613.500,3101.8298877,N,12126.6084015,E,5,06,1.0,6.899,M,11.106,M,0.0,0000*7B
$GPESA,093613.500,-1.641,+3.568,-0.004,+0.000,+0.000,+0.000*77
$GPESD,093613.500,0.074,0.076,0.184,0.085,0.115,0.089,0.000,0.000,0.000*78
$GPRMC,093613.600,A,3101.8300796,N,12126.6082987,E,7.58,193.65,200323,0.0,E,R,V*6A
$GPGGA,093613.600,3101.8300796,N,12126.6082987,E,5,06,1.0,6.891,M,11.106,M,0.0,0000*74
$GPESA,093613.600,-1.614,+3.553,+0.039,+0.000,+0.000,+0.000*74
$GPESD,093613.600,0.073,0.076,0.183,0.085,0.115,0.089,0.000,0.000,0.000*7B
$GPRMC,093613.700,A,3101.8302729,N,12126.6082005,E,7.68,194.41,200323,0.0,E,R,V*6C
$GPGGA,093613.700,3101.8302729,N,12126.6082005,E,5,06,1.0,6.875,M,11.106,M,0.0,0000*7A
$GPESA,093613.700,-1.607,+3.612,+0.026,+0.000,+0.000,+0.000*7F
$GPESD,093613.700,0.073,0.075,0.182,0.082,0.107,0.088,0.000,0.000,0.000*7D
$GPRMC,093613.800,A,3101.8304715,N,12126.6081022,E,7.84,195.16,200323,0.0,E,R,V*6D
$GPGGA,093613.800,3101.8304715,N,12126.6081022,E,5,06,1.0,6.868,M,11.106,M,0.0,0000*76
$GPESA,093613.800,-1.607,+3.698,-0.001,+0.000,+0.000,+0.000*71
$GPESD,093613.800,0.073,0.075,0.181,0.085,0.115,0.089,0.000,0.000,0.000*74
$GPRMC,093613.900,A,3101.8306719,N,12126.6079986,E,7.92,194.59,200323,0.0,E,R,V*6F
$GPGGA,093613.900,3101.8306719,N,12126.6079986,E,5,06,1.0,6.864,M,11.106,M,0.0,0000*75
$GPESA,093613.900,-1.639,+3.730,-0.025,+0.000,+0.000,+0.000*78
$GPESD,093613.900,0.072,0.074,0.180,0.085,0.115,0.089,0.000,0.000,0.000*74
$GPRMC,093614.000,A,3101.8308722,N,12126.6078929,E,7.96,193.05,200323,0.0,E,R,V*69
$GPGGA,093614.000,3101.8308722,N,12126.6078929,E,5,06,1.0,6.865,M,11.106,M,0.0,0000*78
$GPESA,093614.000,-1.697,+3.726,-0.053,+0.000,+0.000,+0.000*74
$GPESD,093614.000,0.072,0.074,0.179,0.085,0.115,0.089,0.000,0.000,0.000*7C
$GPRMC,093614.100,A,3101.8310699,N,12126.6077853,E,7.90,192.11,200323,0.0,E,R,V*61
$GPGGA,093614.100,3101.8310699,N,12126.6077853,E,5,06,1.0,6.858,M,11.106,M,0.0,0000*7C
$GPESA,093614.100,-1.725,+3.677,+0.004,+0.000,+0.000,+0.000*7C
$GPESD,093614.100,0.071,0.074,0.178,0.085,0.115,0.089,0.000,0.000,0.000*7F
$GPRMC,093614.200,A,3101.8312686,N,12126.6076746,E,7.91,193.15,200323,0.0,E,R,V*60
$GPGGA,093614.200,3101.8312686,N,12126.6076746,E,5,06,1.0,6.855,M,11.106,M,0.0,0000*74
$GPESA,093614.200,-1.704,+3.696,+0.064,+0.000,+0.000,+0.000*75
$GPESD,093614.200,0.071,0.073,0.177,0.085,0.115,0.089,0.000,0.000,0.000*74
$GPRMC,093614.300,A,3101.8314660,N,12126.6075707,E,7.86,193.43,200323,0.0,E,R,V*6C
$GPGGA,093614.300,3101.8314660,N,12126.6075707,E,5,06,1.0,6.865,M,11.106,M,0.0,0000*7E
$GPESA,093614.300,-1.686,+3.677,+0.073,+0.000,+0.000,+0.000*76
$GPESD,093614.300,0.071,0.073,0.177,0.085,0.115,0.089,0.000,0.000,0.000*75
$GPRMC,093614.400,A,3101.8316626,N,12126.6074677,E,7.80,193.39,200323,0.0,E,R,V*67
$GPGGA,093614.400,3101.8316626,N,12126.6074677,E,5,06,1.0,6.864,M,11.106,M,0.0,0000*7F
$GPESA,093614.400,-1.672,+3.647,+0.062,+0.000,+0.000,+0.000*79
$GPESD,093614.400,0.070,0.073,0.176,0.082,0.107,0.088,0.000,0.000,0.000*77
$GPRMC,093614.500,A,3101.8318583,N,12126.6073612,E,7.75,192.46,200323,0.0,E,R,V*63
$GPGGA,093614.500,3101.8318583,N,12126.6073612,E,5,06,1.0,6.851,M,11.106,M,0.0,0000*7E
$GPESA,093614.500,-1.682,+3.612,+0.011,+0.000,+0.000,+0.000*73
$GPESD,093614.500,0.070,0.072,0.175,0.082,0.107,0.088,0.000,0.000,0.000*74
$GPRMC,093614.600,A,3101.8320531,N,12126.6072521,E,7.77,191.34,200323,0.0,E,R,V*64
$GPGGA,093614.600,3101.8320531,N,12126.6072521,E,5,06,1.0,6.848,M,11.106,M,0.0,0000*75
$GPESA,093614.600,-1.720,+3.611,-0.030,+0.000,+0.000,+0.000*7F
$GPESD,093614.600,0.070,0.072,0.174,0.082,0.107,0.088,0.000,0.000,0.000*76
$GPRMC,093614.700,A,3101.8322489,N,12126.6071425,E,7.79,190.51,200323,0.0,E,R,V*6F
$GPGGA,093614.700,3101.8322489,N,12126.6071425,E,5,06,1.0,6.853,M,11.106,M,0.0,0000*78
$GPESA,093614.700,-1.756,+3.603,-0.002,+0.000,+0.000,+0.000*7D
$GPESD,093614.700,0.069,0.071,0.173,0.082,0.107,0.088,0.000,0.000,0.000*7B
$GPRMC,093614.800,A,3101.8324412,N,12126.6070320,E,7.69,190.33,200323,0.0,E,R,V*62
$GPGGA,093614.800,3101.8324412,N,12126.6070320,E,5,06,1.0,6.848,M,11.106,M,0.0,0000*7A
$GPESA,093614.800,-1.746,+3.552,+0.048,+0.000,+0.000,+0.000*7C
$GPESD,093614.800,0.069,0.071,0.172,0.082,0.107,0.088,0.000,0.000,0.000*75
$GPRMC,093614.900,A,3101.8326307,N,12126.6069198,E,7.65,188.90,200323,0.0,E,R,V*67
$GPGGA,093614.900,3101.8326307,N,12126.6069198,E,5,06,1.0,6.849,M,11.106,M,0.0,0000*72
$GPESA,093614.900,-1.783,+3.508,+0.061,+0.000,+0.000,+0.000*70
$GPESD,093614.900,0.069,0.071,0.171,0.082,0.107,0.088,0.000,0.000,0.000*77
$GPRMC,093615.000,A,3101.8328161,N,12126.6068096,E,7.62,187.03,200323,0.0,E,R,V*6F
$GPGGA,093615.000,3101.8328161,N,12126.6068096,E,5,06,1.0,6.854,M,11.106,M,0.0,0000*74
$GPESA,093615.000,-1.831,+3.466,+0.023,+0.000,+0.000,+0.000*71
$GPESD,093615.000,0.068,0.070,0.171,0.082,0.107,0.088,0.000,0.000,0.000*7F
$GPRMC,093615.100,A,3101.8330053,N,12126.6066920,E,7.57,186.42,200323,0.0,E,R,V*6F
$GPGGA,093615.100,3101.8330053,N,12126.6066920,E,5,06,1.0,6.858,M,11.106,M,0.0,0000*7A
$GPESA,093615.100,-1.839,+3.432,+0.043,+0.000,+0.000,+0.000*7F
$GPESD,093615.100,0.068,0.070,0.170,0.082,0.107,0.088,0.000,0.000,0.000*7F
$GPRMC,093615.200,A,3101.8331886,N,12126.6065762,E,7.48,184.96,200323,0.0,E,R,V*63
$GPGGA,093615.200,3101.8331886,N,12126.6065762,E,5,06,1.0,6.848,M,11.106,M,0.0,0000*72
$GPESA,093615.200,-1.860,+3.367,+0.031,+0.000,+0.000,+0.000*72
$GPESD,093615.200,0.068,0.070,0.169,0.082,0.107,0.088,0.000,0.000,0.000*74
$GPRMC,093615.300,A,3101.8333687,N,12126.6064593,E,7.48,183.52,200323,0.0,E,R,V*6D
$GPGGA,093615.300,3101.8333687,N,12126.6064593,E,5,06,1.0,6.851,M,11.106,M,0.0,0000*7B
$GPESA,093615.300,-1.902,+3.343,+0.008,+0.000,+0.000,+0.000*7A
$GPESD,093615.300,0.067,0.069,0.168,0.082,0.107,0.088,0.000,0.000,0.000*73
$GPRMC,093615.400,A,3101.8335507,N,12126.6063327,E,7.49,180.35,200323,0.0,E,R,V*6A
$GPGGA,093615.400,3101.8335507,N,12126.6063327,E,5,06,1.0,6.845,M,11.106,M,0.0,0000*7A
$GPESA,093615.400,-1.998,+3.292,-0.009,+0.000,+0.000,+0.000*74
$GPESD,093615.400,0.067,0.069,0.168,0.082,0.107,0.088,0.000,0.000,0.000*74
$GPRMC,093615.500,A,3101.8337220,N,12126.6062043,E,7.38,176.55,200323,0.0,E,R,V*62
$GPGGA,093615.500,3101.8337220,N,12126.6062043,E,5,06,1.0,6.838,M,11.106,M,0.0,0000*71
$GPESA,093615.500,-2.079,+3.179,+0.054,+0.000,+0.000,+0.000*78
$GPESD,093615.500,0.067,0.069,0.167,0.082,0.107,0.088,0.000,0.000,0.000*7A
$GPRMC,093615.600,A,3101.8338933,N,12126.6060689,E,7.36,174.12,200323,0.0,E,R,V*6A
$GPGGA,093615.600,3101.8338933,N,12126.6060689,E,5,06,1.0,6.848,M,11.106,M,0.0,0000*71
$GPESA,093615.600,-2.143,+3.124,+0.027,+0.000,+0.000,+0.000*7F
$GPESD,093615.600,0.067,0.069,0.166,0.082,0.107,0.088,0.000,0.000,0.000*78
$GPRMC,093615.700,A,3101.8340589,N,12126.6059306,E,7.32,171.00,200323,0.0,E,R,V*63
$GPGGA,093615.700,3101.8340589,N,12126.6059306,E,5,06,1.0,6.843,M,11.106,M,0.0,0000*71
$GPESA,093615.700,-2.216,+3.043,+0.023,+0.000,+0.000,+0.000*79
$GPESD,093615.700,0.066,0.068,0.165,0.082,0.107,0.088,0.000,0.000,0.000*7A
$GPRMC,093615.800,A,3101.8342207,N,12126.6057903,E,7.27,168.47,200323,0.0,E,R,V*61
$GPGGA,093615.800,3101.8342207,N,12126.6057903,E,5,06,1.0,6.852,M,11.106,M,0.0,0000*7C
$GPESA,093615.800,-2.270,+2.971,+0.022,+0.000,+0.000,+0.000*7E
$GPESD,093615.800,0.066,0.068,0.165,0.082,0.107,0.088,0.000,0.000,0.000*75
$GPRMC,093615.900,A,3101.8343805,N,12126.6056449,E,7.25,166.86,200323,0.0,E,R,V*6A
$GPGGA,093615.900,3101.8343805,N,12126.6056449,E,5,06,1.0,6.845,M,11.106,M,0.0,0000*70
$GPESA,093615.900,-2.307,+2.929,+0.028,+0.000,+0.000,+0.000*79
$GPESD,093615.900,0.066,0.068,0.164,0.082,0.107,0.088,0.000,0.000,0.000*75
$GPRMC,093616.000,A,3101.8345370,N,12126.6054986,E,7.15,164.22,200323,0.0,E,R,V*6C
$GPGGA,093616.000,3101.8345370,N,12126.6054986,E,5,06,1.0,6.849,M,11.106,M,0.0,0000*75
$GPESA,093616.000,-2.346,+2.834,+0.030,+0.000,+0.000,+0.000*72
$GPESD,093616.000,0.065,0.067,0.163,0.082,0.107,0.088,0.000,0.000,0.000*74
$GPRMC,093616.100,A,3101.8346875,N,12126.6053518,E,7.16,161.89,200323,0.0,E,R,V*6B
$GPGGA,093616.100,3101.8346875,N,12126.6053518,E,5,06,1.0,6.852,M,11.106,M,0.0,0000*7F
$GPESA,093616.100,-2.410,+2.782,+0.026,+0.000,+0.000,+0.000*72
$GPESD,093616.100,0.065,0.067,0.163,0.082,0.107,0.088,0.000,0.000,0.000*75
$GPRMC,093616.200,A,3101.8348362,N,12126.6051957,E,7.16,158.00,200323,0.0,E,R,V*65
$GPGGA,093616.200,3101.8348362,N,12126.6051957,E,5,06,1.0,6.854,M,11.106,M,0.0,0000*7C
$GPESA,093616.200,-2.519,+2.688,+0.013,+0.000,+0.000,+0.000*74
$GPESD,093616.200,0.065,0.067,0.162,0.085,0.115,0.089,0.000,0.000,0.000*72
$GPRMC,093616.300,A,3101.8349808,N,12126.6050321,E,7.23,154.69,200323,0.0,E,R,V*6D
$GPGGA,093616.300,3101.8349808,N,12126.6050321,E,5,06,1.0,6.846,M,11.106,M,0.0,0000*72
$GPESA,093616.300,-2.627,+2.636,+0.040,+0.000,+0.000,+0.000*78
$GPESD,093616.300,0.065,0.067,0.161,0.092,0.116,0.090,0.000,0.000,0.000*7D
$GPRMC,093616.400,A,3101.8351236,N,12126.6048620,E,7.28,151.77,200323,0.0,E,R,V*68
$GPGGA,093616.400,3101.8351236,N,12126.6048620,E,5,06,1.0,6.846,M,11.106,M,0.0,0000*76
$GPESA,093616.400,-2.720,+2.574,+0.049,+0.000,+0.000,+0.000*75
$GPESD,093616.400,0.064,0.066,0.161,0.092,0.116,0.090,0.000,0.000,0.000*7A
$GPRMC,093616.500,A,3101.8352685,N,12126.6046802,E,7.54,149.13,200323,0.0,E,R,V*66
$GPGGA,093616.500,3101.8352685,N,12126.6046802,E,5,06,1.0,6.838,M,11.106,M,0.0,0000*71
$GPESA,093616.500,-2.899,+2.575,+0.027,+0.000,+0.000,+0.000*70
$GPESD,093616.500,0.064,0.066,0.160,0.092,0.116,0.090,0.000,0.000,0.000*7A
$GPRMC,093616.600,A,3101.8354045,N,12126.6044979,E,7.55,145.86,200323,0.0,E,R,V*67
$GPGGA,093616.600,3101.8354045,N,12126.6044979,E,5,06,1.0,6.832,M,11.106,M,0.0,0000*7B
$GPESA,093616.600,-2.996,+2.475,+0.033,+0.000,+0.000,+0.000*79
$GPESD,093616.600,0.064,0.066,0.159,0.092,0.116,0.090,0.000,0.000,0.000*73
$GPRMC,093616.700,A,3101.8355322,N,12126.6043112,E,7.53,143.40,200323,0.0,E,R,V*6D
$GPGGA,093616.700,3101.8355322,N,12126.6043112,E,5,06,1.0,6.839,M,11.106,M,0.0,0000*70
$GPESA,093616.700,-3.063,+2.375,+0.021,+0.000,+0.000,+0.000*7E
$GPESD,093616.700,0.064,0.065,0.159,0.085,0.115,0.089,0.000,0.000,0.000*7C
$GPRMC,093616.800,A,3101.8356594,N,12126.6041170,E,7.58,141.58,200323,0.0,E,R,V*6C
$GPGGA,093616.800,3101.8356594,N,12126.6041170,E,5,06,1.0,6.843,M,11.106,M,0.0,0000*7C
$GPESA,093616.800,-3.135,+2.316,+0.015,+0.000,+0.000,+0.000*71
$GPESD,093616.800,0.063,0.065,0.158,0.085,0.115,0.089,0.000,0.000,0.000*75
$GPRMC,093616.900,A,3101.8357810,N,12126.6039149,E,7.63,138.02,200323,0.0,E,R,V*61
$GPGGA,093616.900,3101.8357810,N,12126.6039149,E,5,06,1.0,6.830,M,11.106,M,0.0,0000*7C
$GPESA,093616.900,-3.254,+2.191,+0.027,+0.000,+0.000,+0.000*78
$GPESD,093616.900,0.063,0.065,0.157,0.085,0.115,0.089,0.000,0.000,0.000*7B
$GPRMC,093617.000,A,3101.8358927,N,12126.6037136,E,7.64,136.05,200323,0.0,E,R,V*6B
$GPGGA,093617.000,3101.8358927,N,12126.6037136,E,5,06,1.0,6.828,M,11.106,M,0.0,0000*71
$GPESA,093617.000,-3.317,+2.105,+0.025,+0.000,+0.000,+0.000*79
$GPESD,093617.000,0.063,0.065,0.157,0.085,0.115,0.089,0.000,0.000,0.000*73
$GPRMC,093617.100,A,3101.8360019,N,12126.6035027,E,7.71,133.31,200323,0.0,E,R,V*60
$GPGGA,093617.100,3101.8360019,N,12126.6035027,E,5,06,1.0,6.840,M,11.106,M,0.0,0000*72
$GPESA,093617.100,-3.432,+1.985,+0.014,+0.000,+0.000,+0.000*79
$GPESD,093617.100,0.063,0.065,0.156,0.085,0.115,0.089,0.000,0.000,0.000*73
$GPRMC,093617.200,A,3101.8361019,N,12126.6032832,E,7.78,130.11,200323,0.0,E,R,V*61
$GPGGA,093617.200,3101.8361019,N,12126.6032832,E,5,06,1.0,6.845,M,11.106,M,0.0,0000*7E
$GPESA,093617.200,-3.559,+1.833,+0.012,+0.000,+0.000,+0.000*7C
$GPESD,093617.200,0.062,0.064,0.155,0.085,0.115,0.089,0.000,0.000,0.000*73
$GPRMC,093617.300,A,3101.8361976,N,12126.6030554,E,7.88,127.47,200323,0.0,E,R,V*65
$GPGGA,093617.300,3101.8361976,N,12126.6030554,E,5,06,1.0,6.855,M,11.106,M,0.0,0000*71
$GPESA,093617.300,-3.669,+1.720,+0.037,+0.000,+0.000,+0.000*77
$GPESD,093617.300,0.062,0.064,0.155,0.085,0.115,0.089,0.000,0.000,0.000*72
$GPRMC,093617.400,A,3101.8362870,N,12126.6028214,E,7.97,124.97,200323,0.0,E,R,V*6C
$GPGGA,093617.400,3101.8362870,N,12126.6028214,E,5,06,1.0,6.853,M,11.106,M,0.0,0000*7E
$GPESA,093617.400,-3.780,+1.593,+0.050,+0.000,+0.000,+0.000*7D
$GPESD,093617.400,0.062,0.064,0.154,0.085,0.115,0.089,0.000,0.000,0.000*74
$GPRMC,093617.500,A,3101.8363702,N,12126.6025805,E,8.08,122.48,200323,0.0,E,R,V*6C
$GPGGA,093617.500,3101.8363702,N,12126.6025805,E,5,06,1.0,6.849,M,11.106,M,0.0,0000*78
$GPESA,093617.500,-3.887,+1.464,+0.074,+0.000,+0.000,+0.000*7B
$GPESD,093617.500,0.062,0.064,0.154,0.085,0.115,0.089,0.000,0.000,0.000*75
$GPRMC,093617.600,A,3101.8364480,N,12126.6023334,E,8.24,121.69,200323,0.0,E,R,V*60
$GPGGA,093617.600,3101.8364480,N,12126.6023334,E,5,06,1.0,6.835,M,11.106,M,0.0,0000*71
$GPESA,093617.600,-4.004,+1.391,+0.032,+0.000,+0.000,+0.000*73
$GPESD,093617.600,0.061,0.063,0.153,0.085,0.115,0.089,0.000,0.000,0.000*75
$GPRMC,093617.700,A,3101.8365213,N,12126.6020800,E,8.32,120.40,200323,0.0,E,R,V*6E
$GPGGA,093617.700,3101.8365213,N,12126.6020800,E,5,06,1.0,6.837,M,11.106,M,0.0,0000*70
$GPESA,093617.700,-4.083,+1.282,+0.012,+0.000,+0.000,+0.000*7C
$GPESD,093617.700,0.061,0.063,0.153,0.085,0.115,0.089,0.000,0.000,0.000*74
$GPRMC,093617.800,A,3101.8365898,N,12126.6018177,E,8.53,119.01,200323,0.0,E,R,V*62
$GPGGA,093617.800,3101.8365898,N,12126.6018177,E,5,06,1.0,6.839,M,11.106,M,0.0,0000*7A
$GPESA,093617.800,-4.221,+1.206,+0.021,+0.000,+0.000,+0.000*75
$GPESD,093617.800,0.061,0.063,0.152,0.085,0.115,0.089,0.000,0.000,0.000*7A
$GPRMC,093617.900,A,3101.8366521,N,12126.6015515,E,8.69,117.53,200323,0.0,E,R,V*62
$GPGGA,093617.900,3101.8366521,N,12126.6015515,E,5,06,1.0,6.843,M,11.106,M,0.0,0000*77
$GPESA,093617.900,-4.325,+1.130,+0.052,+0.000,+0.000,+0.000*73
$GPESD,093617.900,0.061,0.063,0.151,0.085,0.115,0.089,0.000,0.000,0.000*78
$GPRMC,093618.000,A,3101.8367095,N,12126.6012762,E,8.82,115.96,200323,0.0,E,R,V*64
$GPGGA,093618.000,3101.8367095,N,12126.6012762,E,5,06,1.0,6.869,M,11.106,M,0.0,0000*77
$GPESA,093618.000,-4.425,+1.001,+0.054,+0.000,+0.000,+0.000*77
$GPESD,093618.000,0.060,0.062,0.151,0.092,0.116,0.090,0.000,0.000,0.000*73
$GPRMC,093618.100,A,3101.8367577,N,12126.6009955,E,8.90,113.60,200323,0.0,E,R,V*60
$GPGGA,093618.100,3101.8367577,N,12126.6009955,E,5,06,1.0,6.875,M,11.106,M,0.0,0000*72
$GPESA,093618.100,-4.511,+0.781,+0.062,+0.000,+0.000,+0.000*7B
$GPESD,093618.100,0.060,0.062,0.150,0.089,0.108,0.088,0.000,0.000,0.000*7F
$GPRMC,093618.200,A,3101.8367904,N,12126.6007138,E,8.95,112.14,200323,0.0,E,R,V*61
$GPGGA,093618.200,3101.8367904,N,12126.6007138,E,5,06,1.0,6.872,M,11.106,M,0.0,0000*73
$GPESA,093618.200,-4.564,+0.602,+0.041,+0.000,+0.000,+0.000*71
$GPESD,093618.200,0.060,0.062,0.150,0.089,0.108,0.088,0.000,0.000,0.000*7C
$GPRMC,093618.300,A,3101.8368196,N,12126.6004255,E,9.08,111.04,200323,0.0,E,R,V*60
$GPGGA,093618.300,3101.8368196,N,12126.6004255,E,5,06,1.0,6.871,M,11.106,M,0.0,0000*76
$GPESA,093618.300,-4.651,+0.452,+0.016,+0.000,+0.000,+0.000*70
$GPESD,093618.300,0.060,0.062,0.149,0.089,0.108,0.088,0.000,0.000,0.000*75
$GPRMC,093618.400,A,3101.8368481,N,12126.6001307,E,9.21,111.16,200323,0.0,E,R,V*6F
$GPGGA,093618.400,3101.8368481,N,12126.6001307,E,5,06,1.0,6.864,M,11.106,M,0.0,0000*75
$GPESA,093618.400,-4.717,+0.464,+0.010,+0.000,+0.000,+0.000*77
$GPESD,093618.400,0.060,0.061,0.149,0.082,0.107,0.088,0.000,0.000,0.000*75
$GPRMC,093618.500,A,3101.8368781,N,12126.5998304,E,9.35,110.61,200323,0.0,E,R,V*60
$GPGGA,093618.500,3101.8368781,N,12126.5998304,E,5,06,1.0,6.861,M,11.106,M,0.0,0000*7B
$GPESA,093618.500,-4.793,+0.423,+0.024,+0.000,+0.000,+0.000*7E
$GPESD,093618.500,0.059,0.061,0.148,0.082,0.107,0.088,0.000,0.000,0.000*7F
$GPRMC,093618.600,A,3101.8368994,N,12126.5995267,E,9.49,109.32,200323,0.0,E,R,V*65
$GPGGA,093618.600,3101.8368994,N,12126.5995267,E,5,06,1.0,6.875,M,11.106,M,0.0,0000*7E
$GPESA,093618.600,-4.875,+0.286,+0.036,+0.000,+0.000,+0.000*70
$GPESD,093618.600,0.059,0.061,0.148,0.082,0.107,0.088,0.000,0.000,0.000*7C
$GPRMC,093618.700,A,3101.8369095,N,12126.5992214,E,9.62,108.25,200323,0.0,E,R,V*60
$GPGGA,093618.700,3101.8369095,N,12126.5992214,E,5,06,1.0,6.883,M,11.106,M,0.0,0000*7C
$GPESA,093618.700,-4.947,+0.133,+0.024,+0.000,+0.000,+0.000*7F
$GPESD,093618.700,0.059,0.061,0.147,0.082,0.107,0.088,0.000,0.000,0.000*72
$GPRMC,093618.800,A,3101.8369090,N,12126.5989095,E,9.78,107.01,200323,0.0,E,R,V*69
$GPGGA,093618.800,3101.8369090,N,12126.5989095,E,5,06,1.0,6.886,M,11.106,M,0.0,0000*72
$GPESA,093618.800,-5.033,-0.027,+0.028,+0.000,+0.000,+0.000*75
$GPESD,093618.800,0.059,0.061,0.147,0.082,0.107,0.088,0.000,0.000,0.000*7D
$GPRMC,093618.900,A,3101.8369033,N,12126.5985896,E,9.94,106.08,200323,0.0,E,R,V*6C
$GPGGA,093618.900,3101.8369033,N,12126.5985896,E,5,06,1.0,6.891,M,11.106,M,0.0,0000*7B
$GPESA,093618.900,-5.113,-0.151,+0.034,+0.000,+0.000,+0.000*7A
$GPESD,093618.900,0.059,0.060,0.146,0.082,0.107,0.088,0.000,0.000,0.000*7C
$GPRMC,093619.000,A,3101.8368967,N,12126.5982685,E,10.02,106.21,200323,0.0,E,R,V*5A
$GPGGA,093619.000,3101.8368967,N,12126.5982685,E,5,06,1.0,6.894,M,11.106,M,0.0,0000*74
$GPESA,093619.000,-5.154,-0.170,+0.008,+0.000,+0.000,+0.000*7D
$GPESD,093619.000,0.058,0.060,0.146,0.082,0.107,0.088,0.000,0.000,0.000*75
$GPRMC,093619.100,A,3101.8368902,N,12126.5979423,E,10.20,105.60,200323,0.0,E,R,V*54
$GPGGA,093619.100,3101.8368902,N,12126.5979423,E,5,06,1.0,6.912,M,11.106,M,0.0,0000*73
$GPESA,093619.100,-5.241,-0.245,+0.020,+0.000,+0.000,+0.000*74
$GPESD,093619.100,0.058,0.060,0.145,0.082,0.107,0.088,0.000,0.000,0.000*77
$GPRMC,093619.200,A,3101.8368753,N,12126.5976111,E,10.36,104.97,200323,0.0,E,R,V*58
$GPGGA,093619.200,3101.8368753,N,12126.5976111,E,5,06,1.0,6.912,M,11.105,M,0.0,0000*72
$GPESA,093619.200,-5.321,-0.329,+0.030,+0.000,+0.000,+0.000*7A
$GPESD,093619.200,0.058,0.060,0.145,0.082,0.107,0.088,0.000,0.000,0.000*74
$GPRMC,093619.300,A,3101.8368566,N,12126.5972752,E,10.49,104.20,200323,0.0,E,R,V*5C
$GPGGA,093619.300,3101.8368566,N,12126.5972752,E,5,06,1.0,6.915,M,11.105,M,0.0,0000*75
$GPESA,093619.300,-5.378,-0.421,+0.052,+0.000,+0.000,+0.000*7C
$GPESD,093619.300,0.058,0.060,0.144,0.089,0.108,0.088,0.000,0.000,0.000*70
$GPRMC,093619.400,A,3101.8368293,N,12126.5969382,E,10.61,103.43,200323,0.0,E,R,V*5D
$GPGGA,093619.400,3101.8368293,N,12126.5969382,E,5,06,1.0,6.908,M,11.105,M,0.0,0000*70
$GPESA,093619.400,-5.430,-0.577,+0.034,+0.000,+0.000,+0.000*72
$GPESD,093619.400,0.058,0.060,0.144,0.082,0.107,0.088,0.000,0.000,0.000*73
$GPRMC,093619.500,A,3101.8367915,N,12126.5965968,E,10.77,103.14,200323,0.0,E,R,V*51
$GPGGA,093619.500,3101.8367915,N,12126.5965968,E,5,06,1.0,6.893,M,11.105,M,0.0,0000*7A
$GPESA,093619.500,-5.496,-0.684,-0.001,+0.000,+0.000,+0.000*70
$GPESD,093619.500,0.057,0.059,0.143,0.089,0.108,0.088,0.000,0.000,0.000*74
$GPRMC,093619.600,A,3101.8367519,N,12126.5962553,E,10.83,102.96,200323,0.0,E,R,V*51
$GPGGA,093619.600,3101.8367519,N,12126.5962553,E,5,06,1.0,6.907,M,11.105,M,0.0,0000*76
$GPESA,093619.600,-5.525,-0.737,-0.014,+0.000,+0.000,+0.000*77
$GPESD,093619.600,0.057,0.059,0.143,0.089,0.108,0.088,0.000,0.000,0.000*77
$GPRMC,093619.700,A,3101.8367137,N,12126.5959043,E,10.98,102.29,200323,0.0,E,R,V*5A
$GPGGA,093619.700,3101.8367137,N,12126.5959043,E,5,06,1.0,6.911,M,11.105,M,0.0,0000*74
$GPESA,093619.700,-5.584,-0.850,-0.009,+0.000,+0.000,+0.000*7F
$GPESD,093619.700,0.057,0.059,0.142,0.089,0.108,0.088,0.000,0.000,0.000*77
$GPRMC,093619.800,A,3101.8366682,N,12126.5955478,E,11.21,102.44,200323,0.0,E,R,V*55
$GPGGA,093619.800,3101.8366682,N,12126.5955478,E,5,06,1.0,6.907,M,11.105,M,0.0,0000*74
$GPESA,093619.800,-5.695,-0.897,-0.045,+0.000,+0.000,+0.000*70
$GPESD,093619.800,0.057,0.059,0.142,0.089,0.108,0.088,0.000,0.000,0.000*78
$GPRMC,093619.900,A,3101.8366202,N,12126.5951854,E,11.43,101.91,200323,0.0,E,R,V*51
$GPGGA,093619.900,3101.8366202,N,12126.5951854,E,5,06,1.0,6.906,M,11.105,M,0.0,0000*7E
$GPESA,093619.900,-5.800,-0.976,-0.024,+0.000,+0.000,+0.000*7A
$GPESD,093619.900,0.057,0.058,0.141,0.092,0.116,0.090,0.000,0.000,0.000*77
$GPRMC,093620.000,A,3101.8365625,N,12126.5948215,E,11.56,101.32,200323,0.0,E,R,V*5A
$GPGGA,093620.000,3101.8365625,N,12126.5948215,E,5,06,1.0,6.914,M,11.105,M,0.0,0000*7B
$GPESA,093620.000,-5.851,-1.059,-0.002,+0.000,+0.000,+0.000*7C
$GPESD,093620.000,0.057,0.058,0.141,0.092,0.116,0.090,0.000,0.000,0.000*74
$GPRMC,093620.100,A,3101.8365041,N,12126.5944590,E,11.61,100.86,200323,0.0,E,R,V*53
$GPGGA,093620.100,3101.8365041,N,12126.5944590,E,5,06,1.0,6.923,M,11.105,M,0.0,0000*7C
$GPESA,093620.100,-5.863,-1.130,+0.009,+0.000,+0.000,+0.000*7F
$GPESD,093620.100,0.056,0.058,0.140,0.092,0.116,0.090,0.000,0.000,0.000*75
$GPRMC,093620.200,A,3101.8364441,N,12126.5940912,E,11.71,100.91,200323,0.0,E,R,V*50
$GPGGA,093620.200,3101.8364441,N,12126.5940912,E,5,06,1.0,6.917,M,11.105,M,0.0,0000*7F
$GPESA,093620.200,-5.899,-1.211,-0.045,+0.000,+0.000,+0.000*77
$GPESD,093620.200,0.056,0.058,0.140,0.092,0.116,0.090,0.000,0.000,0.000*76
$GPRMC,093620.300,A,3101.8363777,N,12126.5937183,E,11.91,100.65,200323,0.0,E,R,V*55
$GPGGA,093620.300,3101.8363777,N,12126.5937183,E,5,06,1.0,6.899,M,11.105,M,0.0,0000*78
$GPESA,093620.300,-5.989,-1.285,-0.049,+0.000,+0.000,+0.000*77
$GPESD,093620.300,0.056,0.058,0.140,0.092,0.116,0.090,0.000,0.000,0.000*77
$GPRMC,093620.400,A,3101.8363057,N,12126.5933413,E,11.97,100.22,200323,0.0,E,R,V*5A
$GPGGA,093620.400,3101.8363057,N,12126.5933413,E,5,06,1.0,6.888,M,11.105,M,0.0,0000*72
$GPESA,093620.400,-6.010,-1.343,-0.029,+0.000,+0.000,+0.000*77
$GPESD,093620.400,0.056,0.057,0.139,0.092,0.116,0.090,0.000,0.000,0.000*71
$GPRMC,093620.500,A,3101.8362299,N,12126.5929695,E,11.89,98.72,200323,0.0,E,R,V*67
$GPGGA,093620.500,3101.8362299,N,12126.5929695,E,5,06,1.0,6.903,M,11.105,M,0.0,0000*77
$GPESA,093620.500,-5.940,-1.458,+0.072,+0.000,+0.000,+0.000*7C
$GPESD,093620.500,0.056,0.057,0.139,0.092,0.116,0.090,0.000,0.000,0.000*70
$GPRMC,093620.600,A,3101.8361486,N,12126.5925949,E,12.01,98.65,200323,0.0,E,R,V*68
$GPGGA,093620.600,3101.8361486,N,12126.5925949,E,5,06,1.0,6.921,M,11.105,M,0.0,0000*7D
$GPESA,093620.600,-5.991,-1.503,+0.062,+0.000,+0.000,+0.000*7D
$GPESD,093620.600,0.056,0.057,0.138,0.092,0.116,0.090,0.000,0.000,0.000*72
$GPRMC,093620.700,A,3101.8360603,N,12126.5922160,E,12.21,97.45,200323,0.0,E,R,V*6C
$GPGGA,093620.700,3101.8360603,N,12126.5922160,E,5,06,1.0,6.937,M,11.105,M,0.0,0000*71
$GPESA,093620.700,-6.049,-1.685,+0.112,+0.000,+0.000,+0.000*78
$GPESD,093620.700,0.055,0.057,0.138,0.099,0.131,0.092,0.000,0.000,0.000*7C
$GPRMC,093620.800,A,3101.8359674,N,12126.5918366,E,12.40,97.46,200323,0.0,E,R,V*60
$GPGGA,093620.800,3101.8359674,N,12126.5918366,E,5,06,1.0,6.942,M,11.105,M,0.0,0000*7B
$GPESA,093620.800,-6.138,-1.737,+0.095,+0.000,+0.000,+0.000*76
$GPESD,093620.800,0.055,0.057,0.138,0.099,0.131,0.092,0.000,0.000,0.000*73
$GPRMC,093620.900,A,3101.8358772,N,12126.5914451,E,12.57,97.18,200323,0.0,E,R,V*65
$GPGGA,093620.900,3101.8358772,N,12126.5914451,E,5,06,1.0,6.935,M,11.105,M,0.0,0000*73
$GPESA,093620.900,-6.213,-1.792,+0.114,+0.000,+0.000,+0.000*7A
$GPESD,093620.900,0.055,0.057,0.137,0.092,0.116,0.090,0.000,0.000,0.000*71
$GPRMC,093621.000,A,3101.8357805,N,12126.5910517,E,12.74,96.92,200323,0.0,E,R,V*68
$GPGGA,093621.000,3101.8357805,N,12126.5910517,E,5,06,1.0,6.940,M,11.105,M,0.0,0000*7E
$GPESA,093621.000,-6.298,-1.809,+0.154,+0.000,+0.000,+0.000*78
$GPESD,093621.000,0.055,0.056,0.137,0.092,0.116,0.090,0.000,0.000,0.000*78
$GPRMC,093621.100,A,3101.8356858,N,12126.5906547,E,12.86,97.03,200323,0.0,E,R,V*66
$GPGGA,093621.100,3101.8356858,N,12126.5906547,E,5,06,1.0,6.961,M,11.105,M,0.0,0000*77
$GPESA,093621.100,-6.368,-1.788,+0.165,+0.000,+0.000,+0.000*73
$GPESD,093621.100,0.055,0.056,0.136,0.092,0.116,0.090,0.000,0.000,0.000*78
$GPRMC,093621.200,A,3101.8355986,N,12126.5902542,E,12.80,98.04,200323,0.0,E,R,V*6B
$GPGGA,093621.200,3101.8355986,N,12126.5902542,E,5,06,1.0,6.970,M,11.105,M,0.0,0000*74
$GPESA,093621.200,-6.365,-1.687,+0.091,+0.000,+0.000,+0.000*79
$GPESD,093621.200,0.055,0.056,0.136,0.092,0.116,0.090,0.000,0.000,0.000*7B
$GPRMC,093621.300,A,3101.8355056,N,12126.5898594,E,12.84,97.70,200323,0.0,E,R,V*6F
$GPGGA,093621.300,3101.8355056,N,12126.5898594,E,5,06,1.0,6.980,M,11.105,M,0.0,0000*77
$GPESA,093621.300,-6.361,-1.780,+0.079,+0.000,+0.000,+0.000*7C
$GPESD,093621.300,0.054,0.056,0.135,0.089,0.108,0.088,0.000,0.000,0.000*74
$GPRMC,093621.400,A,3101.8353995,N,12126.5894684,E,12.79,96.31,200323,0.0,E,R,V*60
$GPGGA,093621.400,3101.8353995,N,12126.5894684,E,5,06,1.0,6.989,M,11.105,M,0.0,0000*77
$GPESA,093621.400,-6.258,-2.025,+0.099,+0.000,+0.000,+0.000*75
$GPESD,093621.400,0.054,0.056,0.135,0.092,0.116,0.090,0.000,0.000,0.000*7F
$GPRMC,093621.500,A,3101.8352814,N,12126.5890737,E,12.91,95.95,200323,0.0,E,R,V*6E
$GPGGA,093621.500,3101.8352814,N,12126.5890737,E,5,06,1.0,6.997,M,11.105,M,0.0,0000*7D
$GPESA,093621.500,-6.294,-2.114,+0.104,+0.000,+0.000,+0.000*72
$GPESD,093621.500,0.054,0.056,0.135,0.089,0.108,0.088,0.000,0.000,0.000*72
$GPRMC,093621.600,A,3101.8351753,N,12126.5886665,E,13.25,97.60,200323,0.0,E,R,V*65
$GPGGA,093621.600,3101.8351753,N,12126.5886665,E,5,06,1.0,6.999,M,11.105,M,0.0,0000*7E
$GPESA,093621.600,-6.518,-1.994,-0.006,+0.000,+0.000,+0.000*74
$GPESD,093621.600,0.054,0.055,0.134,0.089,0.108,0.088,0.000,0.000,0.000*73
$GPRMC,093621.700,A,3101.8350733,N,12126.5882448,E,13.53,97.78,200323,0.0,E,R,V*62
$GPGGA,093621.700,3101.8350733,N,12126.5882448,E,5,06,1.0,6.979,M,11.105,M,0.0,0000*7F
$GPESA,093621.700,-6.660,-2.028,-0.025,+0.000,+0.000,+0.000*75
$GPESD,093621.700,0.054,0.055,0.134,0.092,0.116,0.090,0.000,0.000,0.000*7E
$GPRMC,093621.800,A,3101.8349528,N,12126.5878260,E,13.63,96.51,200323,0.0,E,R,V*6D
$GPGGA,093621.800,3101.8349528,N,12126.5878260,E,5,06,1.0,6.979,M,11.105,M,0.0,0000*79
$GPESA,093621.800,-6.648,-2.228,+0.033,+0.000,+0.000,+0.000*73
$GPESD,093621.800,0.054,0.055,0.133,0.092,0.116,0.090,0.000,0.000,0.000*76
$GPRMC,093621.900,A,3101.8348277,N,12126.5874187,E,13.58,96.49,200323,0.0,E,R,V*67
$GPGGA,093621.900,3101.8348277,N,12126.5874187,E,5,06,1.0,7.002,M,11.105,M,0.0,0000*76
$GPESA,093621.900,-6.605,-2.274,-0.000,+0.000,+0.000,+0.000*74
$GPESD,093621.900,0.054,0.055,0.133,0.092,0.116,0.090,0.000,0.000,0.000*77
$GPRMC,093622.000,A,3101.8347087,N,12126.5870098,E,13.41,96.73,200323,0.0,E,R,V*65
$GPGGA,093622.000,3101.8347087,N,12126.5870098,E,5,06,1.0,6.996,M,11.105,M,0.0,0000*70
$GPESA,093622.000,-6.511,-2.283,-0.057,+0.000,+0.000,+0.000*72
$GPESD,093622.000,0.053,0.055,0.133,0.089,0.108,0.088,0.000,0.000,0.000*76
$GPRMC,093622.100,A,3101.8345906,N,12126.5865968,E,13.48,97.72,200323,0.0,E,R,V*6D
$GPGGA,093622.100,3101.8345906,N,12126.5865968,E,5,06,1.0,6.970,M,11.105,M,0.0,0000*79
$GPESA,093622.100,-6.582,-2.185,-0.124,+0.000,+0.000,+0.000*79
$GPESD,093622.100,0.053,0.055,0.132,0.092,0.116,0.090,0.000,0.000,0.000*7A
$GPRMC,093622.200,A,3101.8344721,N,12126.5861732,E,13.75,97.02,200323,0.0,E,R,V*68
$GPGGA,093622.200,3101.8344721,N,12126.5861732,E,5,06,1.0,6.952,M,11.105,M,0.0,0000*75
$GPESA,093622.200,-6.695,-2.282,-0.062,+0.000,+0.000,+0.000*78
$GPESD,093622.200,0.053,0.055,0.132,0.089,0.108,0.088,0.000,0.000,0.000*75
$GPRMC,093622.300,A,3101.8343475,N,12126.5857402,E,14.14,96.98,200323,0.0,E,R,V*6B
$GPGGA,093622.300,3101.8343475,N,12126.5857402,E,5,06,1.0,6.956,M,11.105,M,0.0,0000*70
$GPESA,093622.300,-6.911,-2.278,-0.012,+0.000,+0.000,+0.000*78
$GPESD,093622.300,0.053,0.054,0.132,0.089,0.128,0.091,0.000,0.000,0.000*7F
$GPRMC,093622.400,A,3101.8342216,N,12126.5853055,E,14.31,96.20,200323,0.0,E,R,V*68
$GPGGA,093622.400,3101.8342216,N,12126.5853055,E,5,06,1.0,6.975,M,11.105,M,0.0,0000*76
$GPESA,093622.400,-6.969,-2.366,+0.063,+0.000,+0.000,+0.000*7E
$GPESD,093622.400,0.053,0.054,0.131,0.089,0.128,0.091,0.000,0.000,0.000*7B
$GPRMC,093622.500,A,3101.8340934,N,12126.5848693,E,14.36,96.36,200323,0.0,E,R,V*66
$GPGGA,093622.500,3101.8340934,N,12126.5848693,E,5,06,1.0,6.976,M,11.105,M,0.0,0000*7B
$GPESA,093622.500,-6.999,-2.367,+0.043,+0.000,+0.000,+0.000*73
$GPESD,093622.500,0.053,0.054,0.131,0.089,0.128,0.091,0.000,0.000,0.000*7A
$GPRMC,093622.600,A,3101.8339664,N,12126.5844272,E,14.53,96.47,200323,0.0,E,R,V*63
$GPGGA,093622.600,3101.8339664,N,12126.5844272,E,5,06,1.0,6.973,M,11.105,M,0.0,0000*7E
$GPESA,093622.600,-7.074,-2.409,+0.019,+0.000,+0.000,+0.000*7B
$GPESD,093622.600,0.052,0.054,0.131,0.099,0.131,0.092,0.000,0.000,0.000*72
$GPRMC,093622.700,A,3101.8338337,N,12126.5839796,E,14.70,96.31,200323,0.0,E,R,V*65
$GPGGA,093622.700,3101.8338337,N,12126.5839796,E,5,06,1.0,6.965,M,11.105,M,0.0,0000*7F
$GPESA,093622.700,-7.142,-2.484,+0.012,+0.000,+0.000,+0.000*70
$GPESD,093622.700,0.052,0.054,0.130,0.089,0.128,0.091,0.000,0.000,0.000*78
$GPRMC,093622.800,A,3101.8336988,N,12126.5835308,E,14.87,96.65,200323,0.0,E,R,V*6C
$GPGGA,093622.800,3101.8336988,N,12126.5835308,E,5,06,1.0,6.961,M,11.105,M,0.0,0000*7B
$GPESA,093622.800,-7.228,-2.505,-0.034,+0.000,+0.000,+0.000*7A
$GPESD,093622.800,0.052,0.054,0.130,0.099,0.131,0.092,0.000,0.000,0.000*7D
$GPRMC,093622.900,A,3101.8335666,N,12126.5830771,E,14.87,96.60,200323,0.0,E,R,V*6B
$GPGGA,093622.900,3101.8335666,N,12126.5830771,E,5,06,1.0,6.950,M,11.105,M,0.0,0000*7B
$GPESA,093622.900,-7.232,-2.500,-0.023,+0.000,+0.000,+0.000*73
$GPESD,093622.900,0.052,0.054,0.129,0.099,0.131,0.092,0.000,0.000,0.000*74
$GPRMC,093623.000,A,3101.8334342,N,12126.5826292,E,14.77,96.93,200323,0.0,E,R,V*6D
$GPGGA,093623.000,3101.8334342,N,12126.5826292,E,5,06,1.0,6.949,M,11.105,M,0.0,0000*76
$GPESA,093623.000,-7.185,-2.472,-0.067,+0.000,+0.000,+0.000*70
$GPESD,093623.000,0.052,0.053,0.129,0.099,0.131,0.092,0.000,0.000,0.000*7B
$GPRMC,093623.100,A,3101.8333043,N,12126.5821832,E,14.79,96.88,200323,0.0,E,R,V*6A
$GPGGA,093623.100,3101.8333043,N,12126.5821832,E,5,06,1.0,6.945,M,11.105,M,0.0,0000*79
$GPESA,093623.100,-7.194,-2.475,-0.058,+0.000,+0.000,+0.000*7A
$GPESD,093623.100,0.052,0.053,0.129,0.099,0.131,0.092,0.000,0.000,0.000*7A
$GPRMC,093623.200,A,3101.8331686,N,12126.5817314,E,14.78,96.28,200323,0.0,E,R,V*65
$GPGGA,093623.200,3101.8331686,N,12126.5817314,E,5,06,1.0,6.935,M,11.105,M,0.0,0000*7A
$GPESA,093623.200,-7.171,-2.521,+0.002,+0.000,+0.000,+0.000*7B
$GPESD,093623.200,0.052,0.053,0.128,0.089,0.128,0.091,0.000,0.000,0.000*72
$GPRMC,093623.300,A,3101.8330312,N,12126.5812734,E,15.00,96.00,200323,0.0,E,R,V*6A
$GPGGA,093623.300,3101.8330312,N,12126.5812734,E,5,06,1.0,6.943,M,11.105,M,0.0,0000*70
$GPESA,093623.300,-7.275,-2.574,+0.036,+0.000,+0.000,+0.000*7A
$GPESD,093623.300,0.051,0.053,0.128,0.089,0.128,0.091,0.000,0.000,0.000*70
$GPRMC,093623.400,A,3101.8328905,N,12126.5808111,E,15.23,96.19,200323,0.0,E,R,V*6B
$GPGGA,093623.400,3101.8328905,N,12126.5808111,E,5,06,1.0,6.946,M,11.104,M,0.0,0000*7C
$GPESA,093623.400,-7.398,-2.575,+0.031,+0.000,+0.000,+0.000*79
$GPESD,093623.400,0.051,0.053,0.128,0.099,0.131,0.092,0.000,0.000,0.000*7D
$GPRMC,093623.500,A,3101.8327509,N,12126.5803478,E,15.23,96.11,200323,0.0,E,R,V*6C
$GPGGA,093623.500,3101.8327509,N,12126.5803478,E,5,06,1.0,6.952,M,11.104,M,0.0,0000*76
$GPESA,093623.500,-7.394,-2.586,+0.036,+0.000,+0.000,+0.000*7F
$GPESD,093623.500,0.051,0.053,0.127,0.116,0.137,0.095,0.000,0.000,0.000*74
$GPRMC,093623.600,A,3101.8326150,N,12126.5798839,E,15.28,96.21,200323,0.0,E,R,V*6A
$GPGGA,093623.600,3101.8326150,N,12126.5798839,E,5,06,1.0,6.948,M,11.104,M,0.0,0000*73
$GPESA,093623.600,-7.418,-2.593,+0.021,+0.000,+0.000,+0.000*7D
$GPESD,093623.600,0.051,0.053,0.127,0.116,0.137,0.095,0.000,0.000,0.000*77
$GPRMC,093623.700,A,3101.8324722,N,12126.5794153,E,15.31,96.09,200323,0.0,E,R,V*61
$GPGGA,093623.700,3101.8324722,N,12126.5794153,E,5,06,1.0,6.944,M,11.104,M,0.0,0000*76
$GPESA,093623.700,-7.417,-2.643,+0.011,+0.000,+0.000,+0.000*7E
$GPESD,093623.700,0.051,0.052,0.127,0.092,0.116,0.090,0.000,0.000,0.000*7C
$GPRMC,093623.800,A,3101.8323338,N,12126.5789530,E,15.30,96.19,200323,0.0,E,R,V*6B
$GPGGA,093623.800,3101.8323338,N,12126.5789530,E,5,06,1.0,6.938,M,11.104,M,0.0,0000*77
$GPESA,093623.800,-7.413,-2.638,-0.002,+0.000,+0.000,+0.000*7D
$GPESD,093623.800,0.051,0.052,0.126,0.092,0.116,0.090,0.000,0.000,0.000*72
