$GPRMC,093610.489,A,3101.8262926,N,12126.6102651,E,0.92,0.00,200323,0.0,E,R,V*6E
$GPGGA,093610.489,3101.8262926,N,12126.6102651,E,5,37,1.0,6.118,M,11.106,M,0.0,0000*73
$GPESA,093610.489,-0.340,-0.331,+0.026,-1.889,+1.141,+138.349*77
$GPRMC,093610.589,A,3101.8262878,N,12126.6101928,E,1.00,0.00,200323,0.0,E,R,V*6D
$GPGGA,093610.589,3101.8262878,N,12126.6101928,E,5,37,1.0,7.797,M,11.106,M,0.0,0000*7A
$GPESA,093610.589,-0.351,-0.373,+0.004,-1.900,+1.110,+138.349*74
$GPRMC,093610.689,A,3101.8262656,N,12126.6101687,E,1.20,0.00,200323,0.0,E,R,V*64
$GPGGA,093610.689,3101.8262656,N,12126.6101687,E,5,37,1.0,7.797,M,11.106,M,0.0,0000*71
$GPESA,093610.689,-0.422,-0.448,+0.001,-1.823,+1.115,+138.347*75
$GPRMC,093610.789,A,3101.8262390,N,12126.6101397,E,1.44,0.00,200323,0.0,E,R,V*6C
$GPGGA,093610.789,3101.8262390,N,12126.6101397,E,5,37,1.0,7.797,M,11.106,M,0.0,0000*7B
$GPESA,093610.789,-0.505,-0.539,+0.003,-1.763,+1.112,+138.337*7E
$GPRMC,093610.889,A,3101.8262071,N,12126.6101046,E,1.73,0.00,200323,0.0,E,R,V*64
$GPGGA,093610.889,3101.8262071,N,12126.6101046,E,5,37,1.0,7.798,M,11.106,M,0.0,0000*78
$GPESA,093610.889,-0.613,-0.645,+0.001,-1.711,+1.131,+138.314*7A
$GPRMC,093610.989,A,3101.8261689,N,12126.6100629,E,2.04,81.86,200323,0.0,E,R,V*5D
$GPGGA,093610.989,3101.8261689,N,12126.6100629,E,5,37,1.0,7.798,M,11.106,M,0.0,0000*75
$GPESA,093610.989,-0.721,-0.763,+0.004,-1.666,+1.139,+138.283*7D
$GPRMC,093611.089,A,3101.8261240,N,12126.6100147,E,2.35,81.91,200323,0.0,E,R,V*5F
$GPGGA,093611.089,3101.8261240,N,12126.6100147,E,5,37,1.0,7.797,M,11.106,M,0.0,0000*7C
$GPESA,093611.089,-0.812,-0.897,-0.013,-1.650,+1.101,+138.219*73
$GPRMC,093611.189,A,3101.8260728,N,12126.6099596,E,2.66,82.15,200323,0.0,E,R,V*54
$GPGGA,093611.189,3101.8260728,N,12126.6099596,E,5,37,1.0,7.796,M,11.106,M,0.0,0000*7F
$GPESA,093611.189,-0.933,-1.004,-0.010,-1.650,+1.083,+138.183*7B
$GPRMC,093611.289,A,3101.8260155,N,12126.6098975,E,2.96,82.27,200323,0.0,E,R,V*55
$GPGGA,093611.289,3101.8260155,N,12126.6098975,E,5,37,1.0,7.795,M,11.106,M,0.0,0000*73
$GPESA,093611.289,-1.035,-1.117,-0.016,-1.659,+1.060,+138.143*7B
$GPRMC,093611.389,A,3101.8259519,N,12126.6098287,E,3.28,82.57,200323,0.0,E,R,V*57
$GPGGA,093611.389,3101.8259519,N,12126.6098287,E,5,36,1.0,7.793,M,11.106,M,0.0,0000*75
$GPESA,093611.389,-1.150,-1.232,-0.024,-1.659,+1.032,+138.052*7B
$GPRMC,093611.489,A,3101.8258824,N,12126.6097528,E,3.57,82.56,200323,0.0,E,R,V*56
$GPGGA,093611.489,3101.8258824,N,12126.6097528,E,5,36,1.0,7.791,M,11.106,M,0.0,0000*7F
$GPESA,093611.489,-1.261,-1.332,-0.018,-1.667,+1.023,+137.974*7C
$GPRMC,093611.589,A,3101.8259339,N,12126.6098055,E,3.42,83.10,200323,0.0,E,R,V*56
$GPGGA,093611.589,3101.8259339,N,12126.6098055,E,5,36,1.0,7.778,M,11.106,M,0.0,0000*7F
$GPESA,093611.589,-1.220,-1.270,-0.028,-1.675,+1.049,+137.903*73
$GPRMC,093611.689,A,3101.8258622,N,12126.6097252,E,3.73,83.00,200323,0.0,E,R,V*52
$GPGGA,093611.689,3101.8258622,N,12126.6097252,E,5,36,1.0,7.775,M,11.106,M,0.0,0000*75
$GPESA,093611.689,-1.326,-1.386,-0.030,-1.650,+1.074,+137.799*72
$GPRMC,093611.789,A,3101.8257844,N,12126.6096383,E,4.02,82.93,200323,0.0,E,R,V*54
$GPGGA,093611.789,3101.8257844,N,12126.6096383,E,5,36,1.0,7.772,M,11.106,M,0.0,0000*7E
$GPESA,093611.789,-1.433,-1.489,-0.025,-1.650,+1.081,+137.690*7E
$GPRMC,093611.889,A,3101.8257010,N,12126.6095448,E,4.30,83.07,200323,0.0,E,R,V*5C
$GPGGA,093611.889,3101.8257010,N,12126.6095448,E,5,36,1.0,7.770,M,11.106,M,0.0,0000*79
$GPESA,093611.889,-1.537,-1.594,-0.032,-1.655,+1.094,+137.587*7B
$GPRMC,093611.989,A,3101.8256121,N,12126.6094448,E,4.57,83.28,200323,0.0,E,R,V*52
$GPGGA,093611.989,3101.8256121,N,12126.6094448,E,5,36,1.0,7.766,M,11.106,M,0.0,0000*7C
$GPESA,093611.989,-1.637,-1.690,-0.041,-1.670,+1.102,+137.459*71
$GPRMC,093612.089,A,3101.8255180,N,12126.6093389,E,4.84,83.34,200323,0.0,E,R,V*5E
$GPGGA,093612.089,3101.8255180,N,12126.6093389,E,5,36,1.0,7.762,M,11.106,M,0.0,0000*77
$GPESA,093612.089,-1.728,-1.788,-0.048,-1.655,+1.116,+137.354*7D
$GPRMC,093612.189,A,3101.8254189,N,12126.6092272,E,5.10,83.11,200323,0.0,E,R,V*58
$GPGGA,093612.189,3101.8254189,N,12126.6092272,E,5,36,1.0,7.758,M,11.106,M,0.0,0000*73
$GPESA,093612.189,-1.828,-1.880,-0.033,-1.620,+1.128,+137.289*76
$GPRMC,093612.289,A,3101.8253143,N,12126.6091097,E,5.34,83.12,200323,0.0,E,R,V*55
$GPGGA,093612.289,3101.8253143,N,12126.6091097,E,5,36,1.0,7.754,M,11.106,M,0.0,0000*77
$GPESA,093612.289,-1.914,-1.972,-0.037,-1.597,+1.142,+137.235*77
$GPRMC,093612.390,A,3101.8252040,N,12126.6089869,E,5.61,82.81,200323,0.0,E,R,V*54
$GPGGA,093612.390,3101.8252040,N,12126.6089869,E,5,36,1.0,7.750,M,11.106,M,0.0,0000*79
$GPESA,093612.390,-1.990,-2.093,-0.039,-1.583,+1.137,+137.206*7E
$GPRMC,093612.490,A,3101.8250888,N,12126.6088591,E,5.82,82.82,200323,0.0,E,R,V*58
$GPGGA,093612.490,3101.8250888,N,12126.6088591,E,5,36,1.0,7.746,M,11.106,M,0.0,0000*7C
$GPESA,093612.490,-2.065,-2.169,-0.040,-1.603,+1.120,+137.196*74
$GPRMC,093612.590,A,3101.8249699,N,12126.6087268,E,6.01,82.97,200323,0.0,E,R,V*5D
$GPGGA,093612.590,3101.8249699,N,12126.6087268,E,5,36,1.0,7.741,M,11.106,M,0.0,0000*72
$GPESA,093612.590,-2.133,-2.234,-0.048,-1.637,+1.104,+137.182*70
$GPRMC,093612.690,A,3101.8248476,N,12126.6085901,E,6.20,83.16,200323,0.0,E,R,V*51
$GPGGA,093612.690,3101.8248476,N,12126.6085901,E,5,36,1.0,7.737,M,11.106,M,0.0,0000*74
$GPESA,093612.690,-2.223,-2.284,-0.042,-1.613,+1.109,+137.179*7F
$GPRMC,093612.790,A,3101.8247215,N,12126.6084479,E,6.42,83.09,200323,0.0,E,R,V*55
$GPGGA,093612.790,3101.8247215,N,12126.6084479,E,5,36,1.0,7.732,M,11.106,M,0.0,0000*7F
$GPESA,093612.790,-2.301,-2.369,-0.041,-1.601,+1.160,+137.191*74
$GPRMC,093612.890,A,3101.8245910,N,12126.6083003,E,6.63,82.99,200323,0.0,E,R,V*53
$GPGGA,093612.890,3101.8245910,N,12126.6083003,E,5,36,1.0,7.728,M,11.106,M,0.0,0000*79
$GPESA,093612.890,-2.381,-2.445,-0.033,-1.616,+1.233,+137.189*75
$GPRMC,093612.990,A,3101.8244557,N,12126.6081486,E,6.86,82.86,200323,0.0,E,R,V*52
$GPGGA,093612.990,3101.8244557,N,12126.6081486,E,5,36,1.0,7.724,M,11.106,M,0.0,0000*71
$GPESA,093612.990,-2.445,-2.546,-0.040,-1.598,+1.229,+137.190*7B
$GPRMC,093613.090,A,3101.8243160,N,12126.6079923,E,7.08,82.74,200323,0.0,E,R,V*52
$GPGGA,093613.090,3101.8243160,N,12126.6079923,E,5,36,1.0,7.721,M,11.106,M,0.0,0000*7E
$GPESA,093613.090,-2.525,-2.627,-0.032,-1.564,+1.248,+137.189*79
$GPRMC,093613.190,A,3101.8241724,N,12126.6078291,E,7.28,82.51,200323,0.0,E,R,V*51
$GPGGA,093613.190,3101.8241724,N,12126.6078291,E,5,36,1.0,7.716,M,11.106,M,0.0,0000*7C
$GPESA,093613.190,-2.529,-2.760,-0.071,-1.652,+1.512,+137.181*77
$GPRMC,093613.290,A,3101.8240228,N,12126.6076654,E,7.40,82.32,200323,0.0,E,R,V*52
$GPGGA,093613.290,3101.8240228,N,12126.6076654,E,5,36,1.0,7.711,M,11.106,M,0.0,0000*73
$GPESA,093613.290,-2.624,-2.761,-0.014,-1.733,+1.194,+137.178*72
$GPRMC,093613.390,A,3101.8238721,N,12126.6074986,E,7.52,82.21,200323,0.0,E,R,V*53
$GPGGA,093613.390,3101.8238721,N,12126.6074986,E,5,36,1.0,7.709,M,11.106,M,0.0,0000*7A
$GPESA,093613.390,-2.665,-2.803,-0.006,-1.675,+1.127,+137.206*7F
$GPRMC,093613.490,A,3101.8237199,N,12126.6073287,E,7.65,82.65,200323,0.0,E,R,V*57
$GPGGA,093613.490,3101.8237199,N,12126.6073287,E,5,36,1.0,7.708,M,11.106,M,0.0,0000*7B
$GPESA,093613.490,-2.749,-2.818,-0.009,-1.470,+1.141,+137.247*70
$GPRMC,093613.590,A,3101.8235658,N,12126.6071554,E,7.76,82.61,200323,0.0,E,R,V*53
$GPGGA,093613.590,3101.8235658,N,12126.6071554,E,5,36,1.0,7.708,M,11.106,M,0.0,0000*79
$GPESA,093613.590,-2.789,-2.858,-0.006,-1.253,+1.237,+137.279*7E
$GPRMC,093613.690,A,3101.8234088,N,12126.6069794,E,7.89,82.31,200323,0.0,E,R,V*58
$GPGGA,093613.690,3101.8234088,N,12126.6069794,E,5,36,1.0,7.707,M,11.106,M,0.0,0000*78
$GPESA,093613.690,-2.814,-2.926,+0.000,-1.172,+1.245,+137.327*71
$GPRMC,093613.790,A,3101.8232491,N,12126.6068007,E,8.01,82.47,200323,0.0,E,R,V*51
$GPGGA,093613.790,3101.8232491,N,12126.6068007,E,5,36,1.0,7.705,M,11.106,M,0.0,0000*7D
$GPESA,093613.790,-2.852,-2.977,-0.018,-1.186,+1.287,+137.381*70
$GPRMC,093613.890,A,3101.8233023,N,12126.6067740,E,7.37,82.76,200323,0.0,E,R,V*51
$GPGGA,093613.890,3101.8233023,N,12126.6067740,E,5,36,1.0,6.002,M,11.106,M,0.0,0000*74
$GPESA,093613.890,-2.574,-2.783,-0.080,-0.273,+1.632,+137.475*7C
$GPRMC,093613.990,A,3101.8231532,N,12126.6066056,E,7.54,82.72,200323,0.0,E,R,V*57
$GPGGA,093613.990,3101.8231532,N,12126.6066056,E,5,36,1.0,6.001,M,11.106,M,0.0,0000*70
$GPESA,093613.990,-2.791,-2.690,+0.059,-0.218,+1.396,+137.526*74
$GPRMC,093614.090,A,3101.8230022,N,12126.6064364,E,7.56,81.09,200323,0.0,E,R,V*51
$GPGGA,093614.090,3101.8230022,N,12126.6064364,E,5,36,1.0,6.005,M,11.106,M,0.0,0000*7F
$GPESA,093614.090,-2.686,-2.812,+0.087,-0.444,+0.976,+137.564*76
$GPRMC,093614.190,A,3101.8228524,N,12126.6062669,E,7.49,81.96,200323,0.0,E,R,V*5C
$GPGGA,093614.190,3101.8228524,N,12126.6062669,E,5,36,1.0,6.009,M,11.106,M,0.0,0000*76
$GPESA,093614.190,-2.677,-2.769,+0.033,-0.535,+0.936,+137.675*75
$GPRMC,093614.290,A,3101.8227048,N,12126.6060972,E,7.39,82.49,200323,0.0,E,R,V*5E
$GPGGA,093614.290,3101.8227048,N,12126.6060972,E,5,36,1.0,6.011,M,11.106,M,0.0,0000*7B
$GPESA,093614.290,-2.660,-2.713,+0.009,-0.457,+1.267,+137.808*7B
$GPRMC,093614.390,A,3101.8225571,N,12126.6059291,E,7.45,82.16,200323,0.0,E,R,V*5F
$GPGGA,093614.390,3101.8225571,N,12126.6059291,E,5,36,1.0,6.012,M,11.106,M,0.0,0000*78
$GPESA,093614.390,-2.671,-2.748,+0.024,-0.393,+1.365,+137.979*70
$GPRMC,093614.490,A,3101.8224090,N,12126.6057624,E,7.41,82.14,200323,0.0,E,R,V*51
$GPGGA,093614.490,3101.8224090,N,12126.6057624,E,5,36,1.0,6.014,M,11.106,M,0.0,0000*76
$GPESA,093614.490,-2.646,-2.745,+0.016,-0.380,+1.367,+138.157*74
$GPRMC,093614.590,A,3101.8222601,N,12126.6055973,E,7.35,82.11,200323,0.0,E,R,V*51
$GPGGA,093614.590,3101.8222601,N,12126.6055973,E,5,36,1.0,6.015,M,11.106,M,0.0,0000*71
$GPESA,093614.590,-2.616,-2.733,+0.010,-0.391,+1.374,+138.380*7D
$GPRMC,093614.690,A,3101.8221117,N,12126.6054340,E,7.31,81.64,200323,0.0,E,R,V*5F
$GPGGA,093614.690,3101.8221117,N,12126.6054340,E,5,36,1.0,6.017,M,11.106,M,0.0,0000*78
$GPESA,093614.690,-2.573,-2.741,+0.022,-0.381,+1.460,+138.664*76
$GPRMC,093614.790,A,3101.8219629,N,12126.6052740,E,7.26,81.27,200323,0.0,E,R,V*5C
$GPGGA,093614.790,3101.8219629,N,12126.6052740,E,5,36,1.0,6.019,M,11.106,M,0.0,0000*74
$GPESA,093614.790,-2.528,-2.751,+0.025,-0.375,+1.411,+139.001*76
$GPRMC,093614.890,A,3101.8218139,N,12126.6051165,E,7.22,81.02,200323,0.0,E,R,V*55
$GPGGA,093614.890,3101.8218139,N,12126.6051165,E,5,37,1.0,6.022,M,11.106,M,0.0,0000*77
$GPESA,093614.890,-2.489,-2.756,+0.023,-0.346,+1.388,+139.384*7B
$GPRMC,093614.991,A,3101.8216654,N,12126.6049610,E,7.14,80.81,200323,0.0,E,R,V*54
$GPGGA,093614.991,3101.8216654,N,12126.6049610,E,5,37,1.0,6.024,M,11.106,M,0.0,0000*7F
$GPESA,093614.991,-2.448,-2.739,+0.027,-0.323,+1.446,+139.844*7A
$GPRMC,093615.091,A,3101.8215166,N,12126.6048088,E,7.10,80.32,200323,0.0,E,R,V*53
$GPGGA,093615.091,3101.8215166,N,12126.6048088,E,5,37,1.0,6.027,M,11.106,M,0.0,0000*77
$GPESA,093615.091,-2.396,-2.760,+0.029,-0.320,+1.488,+140.379*7E
$GPRMC,093615.191,A,3101.8213677,N,12126.6046602,E,7.01,80.03,200323,0.0,E,R,V*5B
$GPGGA,093615.191,3101.8213677,N,12126.6046602,E,5,37,1.0,6.029,M,11.106,M,0.0,0000*73
$GPESA,093615.191,-2.325,-2.757,+0.017,-0.299,+1.573,+141.026*70
$GPRMC,093615.291,A,3101.8212173,N,12126.6045169,E,6.95,79.16,200323,0.0,E,R,V*5D
$GPGGA,093615.291,3101.8212173,N,12126.6045169,E,5,37,1.0,6.031,M,11.106,M,0.0,0000*72
$GPESA,093615.291,-2.241,-2.785,+0.026,-0.284,+1.592,+141.806*74
$GPRMC,093615.391,A,3101.8210658,N,12126.6043787,E,6.87,78.06,200323,0.0,E,R,V*53
$GPGGA,093615.391,3101.8210658,N,12126.6043787,E,5,37,1.0,6.035,M,11.106,M,0.0,0000*7B
$GPESA,093615.391,-2.139,-2.816,+0.039,-0.276,+1.658,+142.691*79
$GPRMC,093615.491,A,3101.8209127,N,12126.6042469,E,6.80,77.26,200323,0.0,E,R,V*5B
$GPGGA,093615.491,3101.8209127,N,12126.6042469,E,5,37,1.0,6.039,M,11.106,M,0.0,0000*75
$GPESA,093615.491,-2.048,-2.836,+0.039,-0.251,+1.609,+143.691*7B
$GPRMC,093615.591,A,3101.8207586,N,12126.6041205,E,6.74,76.54,200323,0.0,E,R,V*5B
$GPGGA,093615.591,3101.8207586,N,12126.6041205,E,5,37,1.0,6.042,M,11.106,M,0.0,0000*76
$GPESA,093615.591,-1.958,-2.862,+0.029,-0.214,+1.602,+144.795*79
$GPRMC,093615.691,A,3101.8206033,N,12126.6040002,E,6.67,75.82,200323,0.0,E,R,V*5C
$GPGGA,093615.691,3101.8206033,N,12126.6040002,E,5,37,1.0,6.045,M,11.106,M,0.0,0000*7C
$GPESA,093615.691,-1.881,-2.872,+0.031,-0.163,+1.513,+145.930*77
$GPRMC,093615.791,A,3101.8204472,N,12126.6038849,E,6.61,74.90,200323,0.0,E,R,V*52
$GPGGA,093615.791,3101.8204472,N,12126.6038849,E,5,37,1.0,6.049,M,11.106,M,0.0,0000*7A
$GPESA,093615.791,-1.791,-2.890,+0.034,-0.124,+1.471,+147.094*72
$GPRMC,093615.891,A,3101.8202912,N,12126.6037738,E,6.55,74.24,200323,0.0,E,R,V*5E
$GPGGA,093615.891,3101.8202912,N,12126.6037738,E,5,37,1.0,6.052,M,11.106,M,0.0,0000*74
$GPESA,093615.891,-1.725,-2.892,+0.038,-0.079,+1.503,+148.300*70
$GPRMC,093615.991,A,3101.8201341,N,12126.6036685,E,6.48,73.12,200323,0.0,E,R,V*58
$GPGGA,093615.991,3101.8201341,N,12126.6036685,E,5,37,1.0,6.056,M,11.106,M,0.0,0000*78
$GPESA,093615.991,-1.619,-2.914,+0.040,-0.038,+1.483,+149.574*77
$GPRMC,093616.091,A,3101.8199761,N,12126.6035692,E,6.44,72.03,200323,0.0,E,R,V*5E
$GPGGA,093616.091,3101.8199761,N,12126.6035692,E,5,37,1.0,6.060,M,11.106,M,0.0,0000*76
$GPESA,093616.091,-1.529,-2.937,+0.046,-0.004,+1.509,+150.916*76
$GPRMC,093616.191,A,3101.8198157,N,12126.6034753,E,6.46,71.11,200323,0.0,E,R,V*52
$GPGGA,093616.191,3101.8198157,N,12126.6034753,E,5,37,1.0,6.064,M,11.106,M,0.0,0000*7C
$GPESA,093616.191,-1.449,-2.988,+0.037,+0.037,+1.563,+152.369*78
$GPRMC,093616.291,A,3101.8196521,N,12126.6033877,E,6.49,69.55,200323,0.0,E,R,V*52
$GPGGA,093616.291,3101.8196521,N,12126.6033877,E,5,37,1.0,6.068,M,11.106,M,0.0,0000*76
$GPESA,093616.291,-1.334,-3.062,+0.038,+0.115,+1.550,+153.885*7C
$GPRMC,093616.391,A,3101.8194846,N,12126.6033065,E,6.53,67.99,200323,0.0,E,R,V*53
$GPGGA,093616.391,3101.8194846,N,12126.6033065,E,5,37,1.0,6.073,M,11.106,M,0.0,0000*78
$GPESA,093616.391,-1.240,-3.123,+0.054,+0.132,+1.519,+155.464*7C
$GPRMC,093616.491,A,3101.8193136,N,12126.6032321,E,6.57,66.75,200323,0.0,E,R,V*58
$GPGGA,093616.491,3101.8193136,N,12126.6032321,E,5,37,1.0,6.077,M,11.106,M,0.0,0000*70
$GPESA,093616.491,-1.137,-3.182,+0.042,+0.102,+1.423,+157.135*7C
$GPRMC,093616.591,A,3101.8191405,N,12126.6031643,E,6.56,65.17,200323,0.0,E,R,V*5A
$GPGGA,093616.591,3101.8191405,N,12126.6031643,E,5,37,1.0,6.081,M,11.106,M,0.0,0000*7D
$GPESA,093616.591,-1.022,-3.217,+0.047,+0.123,+1.408,+158.873*7C
$GPRMC,093616.691,A,3101.8189650,N,12126.6031041,E,6.58,63.28,200323,0.0,E,R,V*52
$GPGGA,093616.691,3101.8189650,N,12126.6031041,E,5,37,1.0,6.086,M,11.106,M,0.0,0000*76
$GPESA,093616.691,-0.893,-3.265,+0.052,+0.139,+1.344,+160.675*7A
$GPRMC,093616.791,A,3101.8187874,N,12126.6030512,E,6.59,61.78,200323,0.0,E,R,V*51
$GPGGA,093616.791,3101.8187874,N,12126.6030512,E,5,37,1.0,6.092,M,11.106,M,0.0,0000*76
$GPESA,093616.791,-0.786,-3.295,+0.052,+0.157,+1.293,+162.545*7E
$GPRMC,093616.891,A,3101.8186088,N,12126.6030048,E,6.59,59.89,200323,0.0,E,R,V*5B
$GPGGA,093616.891,3101.8186088,N,12126.6030048,E,5,37,1.0,6.097,M,11.106,M,0.0,0000*7C
$GPESA,093616.891,-0.663,-3.323,+0.059,+0.233,+1.419,+164.527*7B
$GPRMC,093616.991,A,3101.8184282,N,12126.6029669,E,6.60,57.84,200323,0.0,E,R,V*54
$GPGGA,093616.991,3101.8184282,N,12126.6029669,E,5,37,1.0,6.104,M,11.106,M,0.0,0000*71
$GPESA,093616.991,-0.529,-3.356,+0.060,+0.322,+1.474,+166.548*7E
$GPRMC,093617.091,A,3101.8182453,N,12126.6029392,E,6.64,55.42,200323,0.0,E,R,V*5D
$GPGGA,093617.091,3101.8182453,N,12126.6029392,E,5,37,1.0,6.109,M,11.106,M,0.0,0000*79
$GPESA,093617.091,-0.371,-3.397,+0.053,+0.395,+1.444,+168.609*77
$GPRMC,093617.191,A,3101.8180601,N,12126.6029210,E,6.70,52.81,200323,0.0,E,R,V*5D
$GPGGA,093617.191,3101.8180601,N,12126.6029210,E,5,37,1.0,6.115,M,11.106,M,0.0,0000*79
$GPESA,093617.191,-0.220,-3.440,+0.058,+0.466,+1.414,+170.708*72
$GPRMC,093617.291,A,3101.8178726,N,12126.6029110,E,6.79,49.83,200323,0.0,E,R,V*5F
$GPGGA,093617.291,3101.8178726,N,12126.6029110,E,5,37,1.0,6.121,M,11.106,M,0.0,0000*7D
$GPESA,093617.291,-0.059,-3.491,+0.070,+0.567,+1.432,+172.803*79
$GPRMC,093617.391,A,3101.8176821,N,12126.6029122,E,6.88,46.82,200323,0.0,E,R,V*59
$GPGGA,093617.391,3101.8176821,N,12126.6029122,E,5,37,1.0,6.128,M,11.106,M,0.0,0000*72
$GPESA,093617.391,+0.107,-3.539,+0.072,+0.584,+1.265,+174.915*7C
$GPRMC,093617.491,A,3101.8174900,N,12126.6029225,E,6.95,44.40,200323,0.0,E,R,V*5A
$GPGGA,093617.491,3101.8174900,N,12126.6029225,E,5,37,1.0,6.135,M,11.106,M,0.0,0000*7D
$GPESA,093617.491,+0.243,-3.569,+0.064,+0.614,+1.116,+177.051*7D
$GPRMC,093617.592,A,3101.8172958,N,12126.6029415,E,7.05,42.27,200323,0.0,E,R,V*59
$GPGGA,093617.592,3101.8172958,N,12126.6029415,E,5,37,1.0,6.141,M,11.106,M,0.0,0000*72
$GPESA,093617.592,+0.355,-3.609,+0.065,+0.716,+0.997,+179.169*7A
$GPRMC,093617.692,A,3101.8170988,N,12126.6029677,E,7.19,39.97,200323,0.0,E,R,V*59
$GPGGA,093617.692,3101.8170988,N,12126.6029677,E,5,37,1.0,6.149,M,11.106,M,0.0,0000*70
$GPESA,093617.692,+0.462,-3.671,+0.089,+0.774,+1.000,-178.757*79
$GPRMC,093617.792,A,3101.8168986,N,12126.6030014,E,7.33,37.26,200323,0.0,E,R,V*58
$GPGGA,093617.792,3101.8168986,N,12126.6030014,E,5,37,1.0,6.158,M,11.106,M,0.0,0000*7D
$GPESA,093617.792,+0.600,-3.721,+0.094,+0.728,+1.017,-176.723*74
$GPRMC,093617.892,A,3101.8166964,N,12126.6030433,E,7.42,33.98,200323,0.0,E,R,V*53
$GPGGA,093617.892,3101.8166964,N,12126.6030433,E,5,37,1.0,6.167,M,11.106,M,0.0,0000*7D
$GPESA,093617.892,+0.761,-3.740,+0.096,+0.662,+1.116,-174.722*74
$GPRMC,093617.992,A,3101.8164935,N,12126.6030967,E,7.51,30.04,200323,0.0,E,R,V*5C
$GPGGA,093617.992,3101.8164935,N,12126.6030967,E,5,37,1.0,6.175,M,11.106,M,0.0,0000*75
$GPESA,093617.992,+0.956,-3.744,+0.073,+0.635,+1.102,-172.771*77
$GPRMC,093618.092,A,3101.8162904,N,12126.6031627,E,7.63,26.09,200323,0.0,E,R,V*5F
$GPGGA,093618.092,3101.8162904,N,12126.6031627,E,5,37,1.0,6.182,M,11.106,M,0.0,0000*75
$GPESA,093618.092,+1.137,-3.757,+0.075,+0.608,+0.903,-170.894*7B
$GPRMC,093618.192,A,3101.8160864,N,12126.6032387,E,7.75,23.48,200323,0.0,E,R,V*50
$GPGGA,093618.192,3101.8160864,N,12126.6032387,E,5,37,1.0,6.189,M,11.106,M,0.0,0000*76
$GPESA,093618.192,+1.263,-3.780,+0.067,+0.566,+0.604,-169.080*77
$GPRMC,093618.292,A,3101.8158816,N,12126.6033214,E,7.82,21.83,200323,0.0,E,R,V*5A
$GPGGA,093618.292,3101.8158816,N,12126.6033214,E,5,37,1.0,6.196,M,11.106,M,0.0,0000*7F
$GPESA,093618.292,+1.334,-3.793,+0.084,+0.578,+0.465,-167.349*7A
$GPRMC,093618.392,A,3101.8156753,N,12126.6034082,E,7.95,19.39,200323,0.0,E,R,V*5D
$GPGGA,093618.392,3101.8156753,N,12126.6034082,E,5,37,1.0,6.206,M,11.106,M,0.0,0000*7E
$GPESA,093618.392,+1.452,-3.822,+0.086,+0.589,+0.571,-165.640*7F
$GPRMC,093618.492,A,3101.8154679,N,12126.6035034,E,8.08,16.45,200323,0.0,E,R,V*52
$GPGGA,093618.492,3101.8154679,N,12126.6035034,E,5,37,1.0,6.215,M,11.106,M,0.0,0000*7C
$GPESA,093618.492,+1.587,-3.841,+0.097,+0.564,+0.638,-163.961*73
$GPRMC,093618.592,A,3101.8152608,N,12126.6036090,E,8.18,12.00,200323,0.0,E,R,V*5A
$GPGGA,093618.592,3101.8152608,N,12126.6036090,E,5,37,1.0,6.224,M,11.106,M,0.0,0000*72
$GPESA,093618.592,+1.779,-3.815,+0.077,+0.597,+0.674,-162.355*76
$GPRMC,093618.692,A,3101.8150541,N,12126.6037264,E,8.31,8.78,200323,0.0,E,R,V*62
$GPGGA,093618.692,3101.8150541,N,12126.6037264,E,5,37,1.0,6.232,M,11.106,M,0.0,0000*72
$GPESA,093618.692,+1.924,-3.819,+0.086,+0.632,+0.500,-160.823*75
$GPRMC,093618.792,A,3101.8148466,N,12126.6038530,E,8.48,5.62,200323,0.0,E,R,V*6F
$GPGGA,093618.792,3101.8148466,N,12126.6038530,E,5,37,1.0,6.240,M,11.106,M,0.0,0000*72
$GPESA,093618.792,+2.078,-3.835,+0.083,+0.642,+0.263,-159.355*79
$GPRMC,093618.892,A,3101.8146376,N,12126.6039843,E,8.59,5.86,200323,0.0,E,R,V*6A
$GPGGA,093618.892,3101.8146376,N,12126.6039843,E,5,37,1.0,6.249,M,11.106,M,0.0,0000*74
$GPESA,093618.892,+2.096,-3.891,+0.090,+0.652,+0.236,-158.000*79
$GPRMC,093618.992,A,3101.8277194,N,12126.6091811,E,9.21,276.38,200323,0.0,E,R,V*6C
$GPGGA,093618.992,3101.8277194,N,12126.6091811,E,5,37,1.0,6.495,M,11.106,M,0.0,0000*78
$GPESA,093618.992,+4.497,+1.486,-0.046,+5.767,-3.204,-167.377*71
$GPRMC,093619.092,A,3101.8278017,N,12126.6094684,E,9.49,276.32,200323,0.0,E,R,V*62
$GPGGA,093619.092,3101.8278017,N,12126.6094684,E,5,37,1.0,6.490,M,11.106,M,0.0,0000*77
$GPESA,093619.092,+4.627,+1.551,-0.042,+5.682,-3.136,-166.152*73
$GPRMC,093619.192,A,3101.8278885,N,12126.6097672,E,9.92,276.04,200323,0.0,E,R,V*69
$GPGGA,093619.192,3101.8278885,N,12126.6097672,E,5,37,1.0,6.485,M,11.106,M,0.0,0000*7B
$GPESA,093619.192,+4.830,+1.645,-0.057,+5.588,-3.248,-164.970*71
$GPRMC,093619.292,A,3101.8279806,N,12126.6100759,E,10.33,275.68,200323,0.0,E,R,V*5D
$GPGGA,093619.292,3101.8279806,N,12126.6100759,E,5,37,1.0,6.478,M,11.106,M,0.0,0000*77
$GPESA,093619.292,+5.014,+1.757,-0.069,+5.566,-3.333,-163.832*7F
$GPRMC,093619.392,A,3101.8280776,N,12126.6103950,E,10.61,275.49,200323,0.0,E,R,V*52
$GPGGA,093619.392,3101.8280776,N,12126.6103950,E,5,37,1.0,6.471,M,11.106,M,0.0,0000*75
$GPESA,093619.392,+5.140,+1.831,-0.075,+5.568,-3.524,-162.773*79
$GPRMC,093619.492,A,3101.8281785,N,12126.6107225,E,10.89,275.00,200323,0.0,E,R,V*5E
$GPGGA,093619.492,3101.8281785,N,12126.6107225,E,5,37,1.0,6.462,M,11.106,M,0.0,0000*70
$GPESA,093619.492,+5.269,+1.901,-0.117,+5.614,-3.572,-161.738*76
$GPRMC,093619.592,A,3101.8282827,N,12126.6110584,E,11.16,275.33,200323,0.0,E,R,V*56
$GPGGA,093619.592,3101.8282827,N,12126.6110584,E,5,37,1.0,6.452,M,11.106,M,0.0,0000*7C
$GPESA,093619.592,+5.405,+1.936,-0.090,+5.641,-3.569,-160.750*74
$GPRMC,093619.692,A,3101.8283901,N,12126.6114035,E,11.52,275.24,200323,0.0,E,R,V*5C
$GPGGA,093619.692,3101.8283901,N,12126.6114035,E,5,37,1.0,6.441,M,11.106,M,0.0,0000*72
$GPESA,093619.692,+5.573,+2.010,-0.096,+5.520,-3.675,-159.835*73
$GPRMC,093619.792,A,3101.8285008,N,12126.6117569,E,11.80,274.99,200323,0.0,E,R,V*5C
$GPGGA,093619.792,3101.8285008,N,12126.6117569,E,5,37,1.0,6.431,M,11.107,M,0.0,0000*7C
$GPESA,093619.792,+5.701,+2.088,-0.111,+5.363,-3.660,-158.964*7B
$GPRMC,093619.892,A,3101.8286165,N,12126.6121195,E,12.12,274.69,200323,0.0,E,R,V*5F
$GPGGA,093619.892,3101.8286165,N,12126.6121195,E,5,37,1.0,6.421,M,11.107,M,0.0,0000*79
$GPESA,093619.892,+5.834,+2.198,-0.116,+5.252,-3.643,-158.156*71
$GPRMC,093619.992,A,3101.8287380,N,12126.6124894,E,12.41,274.32,200323,0.0,E,R,V*53
$GPGGA,093619.992,3101.8287380,N,12126.6124894,E,5,37,1.0,6.409,M,11.107,M,0.0,0000*77
$GPESA,093619.992,+5.954,+2.304,-0.132,+5.216,-3.675,-157.392*76
$GPRMC,093620.092,A,3101.8288645,N,12126.6128667,E,12.66,274.10,200323,0.0,E,R,V*58
$GPGGA,093620.092,3101.8288645,N,12126.6128667,E,5,37,1.0,6.394,M,11.107,M,0.0,0000*7A
$GPESA,093620.092,+6.064,+2.371,-0.150,+5.280,-3.683,-156.620*71
$GPRMC,093620.193,A,3101.8289953,N,12126.6132529,E,12.99,273.92,200323,0.0,E,R,V*5E
$GPGGA,093620.193,3101.8289953,N,12126.6132529,E,5,37,1.0,6.378,M,11.107,M,0.0,0000*73
$GPESA,093620.193,+6.214,+2.446,-0.168,+5.290,-3.670,-155.861*79
$GPRMC,093620.293,A,3101.8291312,N,12126.6136474,E,13.23,273.80,200323,0.0,E,R,V*55
$GPGGA,093620.293,3101.8291312,N,12126.6136474,E,5,37,1.0,6.362,M,11.107,M,0.0,0000*70
$GPESA,093620.293,+6.304,+2.556,-0.146,+5.263,-3.637,-155.111*77
$GPRMC,093620.393,A,3101.8292739,N,12126.6140493,E,13.60,273.63,200323,0.0,E,R,V*58
$GPGGA,093620.393,3101.8292739,N,12126.6140493,E,5,37,1.0,6.349,M,11.107,M,0.0,0000*7E
$GPESA,093620.393,+6.440,+2.726,-0.111,+5.349,-3.562,-154.329*74
$GPRMC,093620.493,A,3101.8294245,N,12126.6144586,E,13.96,273.37,200323,0.0,E,R,V*5E
$GPGGA,093620.493,3101.8294245,N,12126.6144586,E,5,37,1.0,6.338,M,11.107,M,0.0,0000*76
$GPESA,093620.493,+6.584,+2.865,-0.108,+5.638,-3.561,-153.585*7D
$GPRMC,093620.593,A,3101.8295824,N,12126.6148766,E,14.26,272.95,200323,0.0,E,R,V*56
$GPGGA,093620.593,3101.8295824,N,12126.6148766,E,5,37,1.0,6.325,M,11.107,M,0.0,0000*77
$GPESA,093620.593,+6.706,+2.969,-0.143,+6.028,-3.694,-152.943*7C
$GPRMC,093620.693,A,3101.8297453,N,12126.6153024,E,14.54,273.00,200323,0.0,E,R,V*58
$GPGGA,093620.693,3101.8297453,N,12126.6153024,E,5,37,1.0,6.311,M,11.107,M,0.0,0000*76
$GPESA,093620.693,+6.833,+3.041,-0.130,+6.392,-3.788,-152.368*7D
$GPRMC,093620.793,A,3101.8299113,N,12126.6157358,E,14.83,273.25,200323,0.0,E,R,V*57
$GPGGA,093620.793,3101.8299113,N,12126.6157358,E,5,37,1.0,6.300,M,11.107,M,0.0,0000*74
$GPESA,093620.793,+6.969,+3.097,-0.096,+6.473,-3.890,-151.845*7D
$GPRMC,093620.893,A,3101.8300805,N,12126.6161772,E,15.02,273.27,200323,0.0,E,R,V*54
$GPGGA,093620.893,3101.8300805,N,12126.6161772,E,5,37,1.0,6.291,M,11.107,M,0.0,0000*74
$GPESA,093620.893,+7.054,+3.149,-0.087,+6.387,-4.051,-151.480*7D
$GPRMC,093620.993,A,3101.8302543,N,12126.6166221,E,15.21,272.94,200323,0.0,E,R,V*54
$GPGGA,093620.993,3101.8302543,N,12126.6166221,E,5,37,1.0,6.283,M,11.107,M,0.0,0000*7F
$GPESA,093620.993,+7.109,+3.264,-0.091,+6.238,-4.013,-151.185*7D
$GPRMC,093621.093,A,3101.8304320,N,12126.6170676,E,15.24,272.53,200323,0.0,E,R,V*56
$GPGGA,093621.093,3101.8304320,N,12126.6170676,E,5,37,1.0,6.272,M,11.107,M,0.0,0000*7D
$GPESA,093621.093,+7.100,+3.320,-0.122,+6.077,-3.793,-150.863*75
$GPRMC,093621.193,A,3101.8306162,N,12126.6175150,E,15.57,272.00,200323,0.0,E,R,V*55
$GPGGA,093621.193,3101.8306162,N,12126.6175150,E,5,37,1.0,6.261,M,11.107,M,0.0,0000*7E
$GPESA,093621.193,+7.197,+3.512,-0.132,+6.020,-3.407,-150.456*7A
$GPRMC,093621.293,A,3101.8308122,N,12126.6179741,E,16.18,271.58,200323,0.0,E,R,V*50
$GPGGA,093621.293,3101.8308122,N,12126.6179741,E,5,37,1.0,6.247,M,11.107,M,0.0,0000*79
$GPESA,093621.293,+7.431,+3.747,-0.142,+6.071,-3.631,-150.131*72
$GPRMC,093621.393,A,3101.8310165,N,12126.6184414,E,16.31,271.33,200323,0.0,E,R,V*5C
$GPGGA,093621.393,3101.8310165,N,12126.6184414,E,5,37,1.0,6.232,M,11.107,M,0.0,0000*71
$GPESA,093621.393,+7.473,+3.806,-0.164,+6.154,-3.878,-149.807*7A
$GPRMC,093621.493,A,3101.8312231,N,12126.6189111,E,16.33,270.95,200323,0.0,E,R,V*59
$GPGGA,093621.493,3101.8312231,N,12126.6189111,E,5,37,1.0,6.211,M,11.107,M,0.0,0000*7A
$GPESA,093621.493,+7.475,+3.823,-0.222,+6.187,-3.845,-149.354*70
$GPRMC,093621.593,A,3101.8314307,N,12126.6193846,E,16.53,270.98,200323,0.0,E,R,V*51
$GPGGA,093621.593,3101.8314307,N,12126.6193846,E,5,37,1.0,6.191,M,11.107,M,0.0,0000*72
$GPESA,093621.593,+7.572,+3.865,-0.224,+5.899,-3.585,-148.924*7B
$GPRMC,093621.693,A,3101.8316444,N,12126.6198693,E,17.13,271.07,200323,0.0,E,R,V*5F
$GPGGA,093621.693,3101.8316444,N,12126.6198693,E,5,37,1.0,6.169,M,11.107,M,0.0,0000*79
$GPESA,093621.693,+7.841,+4.022,-0.204,+5.492,-3.635,-148.588*7E
$GPRMC,093621.793,A,3101.8318657,N,12126.6203613,E,17.31,270.28,200323,0.0,E,R,V*55
$GPGGA,093621.793,3101.8318657,N,12126.6203613,E,5,37,1.0,6.146,M,11.107,M,0.0,0000*72
$GPESA,093621.793,+7.858,+4.183,-0.268,+5.044,-3.747,-148.286*75
$GPRMC,093621.893,A,3101.8320967,N,12126.6208551,E,17.54,269.40,200323,0.0,E,R,V*56
$GPGGA,093621.893,3101.8320967,N,12126.6208551,E,5,37,1.0,6.116,M,11.107,M,0.0,0000*71
$GPESA,093621.893,+7.891,+4.364,-0.347,+5.144,-3.888,-147.982*75
$GPRMC,093621.993,A,3101.8323346,N,12126.6213513,E,17.67,269.38,200323,0.0,E,R,V*5E
$GPGGA,093621.993,3101.8323346,N,12126.6213513,E,5,37,1.0,6.083,M,11.107,M,0.0,0000*7B
$GPESA,093621.993,+7.925,+4.442,-0.321,+5.505,-3.937,-147.784*75
$GPRMC,093622.093,A,3101.8325759,N,12126.6218507,E,17.81,269.59,200323,0.0,E,R,V*59
$GPGGA,093622.093,3101.8325759,N,12126.6218507,E,5,37,1.0,6.053,M,11.107,M,0.0,0000*7E
$GPESA,093622.093,+7.986,+4.479,-0.284,+5.795,-3.933,-147.601*73
$GPRMC,093622.193,A,3101.8328199,N,12126.6223548,E,18.02,269.67,200323,0.0,E,R,V*55
$GPGGA,093622.193,3101.8328199,N,12126.6223548,E,5,37,1.0,6.026,M,11.107,M,0.0,0000*79
$GPESA,093622.193,+8.074,+4.547,-0.263,+5.943,-3.875,-147.464*7B
$GPRMC,093622.293,A,3101.8330678,N,12126.6228650,E,18.27,269.64,200323,0.0,E,R,V*52
$GPGGA,093622.293,3101.8330678,N,12126.6228650,E,5,37,1.0,6.000,M,11.107,M,0.0,0000*7E
$GPESA,093622.293,+8.174,+4.637,-0.255,+5.972,-3.842,-147.382*71
$GPRMC,093622.393,A,3101.8333205,N,12126.6233796,E,18.42,269.50,200323,0.0,E,R,V*5B
$GPGGA,093622.393,3101.8333205,N,12126.6233796,E,5,37,1.0,5.974,M,11.107,M,0.0,0000*7A
$GPESA,093622.393,+8.217,+4.710,-0.259,+5.995,-3.868,-147.315*71
$GPRMC,093622.493,A,3101.8335776,N,12126.6238976,E,18.61,269.15,200323,0.0,E,R,V*50
$GPGGA,093622.493,3101.8335776,N,12126.6238976,E,5,37,1.0,5.946,M,11.107,M,0.0,0000*70
$GPESA,093622.493,+8.279,+4.795,-0.302,+6.008,-3.836,-147.218*75
$GPRMC,093622.593,A,3101.8338389,N,12126.6244212,E,18.84,269.01,200323,0.0,E,R,V*54
$GPGGA,093622.593,3101.8338389,N,12126.6244212,E,5,37,1.0,5.916,M,11.107,M,0.0,0000*7F
$GPESA,093622.593,+8.369,+4.873,-0.320,+5.954,-3.794,-147.143*7A
$GPRMC,093622.693,A,3101.8341049,N,12126.6249485,E,18.92,269.06,200323,0.0,E,R,V*53
$GPGGA,093622.693,3101.8341049,N,12126.6249485,E,5,37,1.0,5.885,M,11.107,M,0.0,0000*73
$GPESA,093622.693,+8.386,+4.930,-0.287,+5.851,-3.769,-147.057*70
$GPRMC,093622.794,A,3101.8343768,N,12126.6254786,E,19.17,268.80,200323,0.0,E,R,V*5C
$GPGGA,093622.794,3101.8343768,N,12126.6254786,E,5,37,1.0,5.856,M,11.107,M,0.0,0000*71
$GPESA,093622.794,+8.446,+5.083,-0.283,+5.706,-3.773,-146.965*76
$GPRMC,093622.894,A,3101.8346564,N,12126.6260110,E,19.42,268.14,200323,0.0,E,R,V*5B
$GPGGA,093622.894,3101.8346564,N,12126.6260110,E,5,37,1.0,5.823,M,11.107,M,0.0,0000*79
$GPESA,093622.894,+8.486,+5.260,-0.343,+5.740,-3.738,-146.888*78
$GPRMC,093622.994,A,3101.8349441,N,12126.6265446,E,19.54,268.01,200323,0.0,E,R,V*53
$GPGGA,093622.994,3101.8349441,N,12126.6265446,E,5,37,1.0,5.790,M,11.107,M,0.0,0000*75
$GPESA,093622.994,+8.498,+5.359,-0.323,+6.019,-3.661,-146.778*7E
$GPRMC,093623.094,A,3101.8352382,N,12126.6270809,E,19.81,267.83,200323,0.0,E,R,V*57
$GPGGA,093623.094,3101.8352382,N,12126.6270809,E,5,37,1.0,5.757,M,11.107,M,0.0,0000*77
$GPESA,093623.094,+8.573,+5.500,-0.319,+6.239,-3.592,-146.678*7F
$GPRMC,093623.194,A,3101.8355385,N,12126.6276210,E,19.97,267.63,200323,0.0,E,R,V*5B
$GPGGA,093623.194,3101.8355385,N,12126.6276210,E,5,37,1.0,5.726,M,11.107,M,0.0,0000*74
$GPESA,093623.194,+8.600,+5.608,-0.317,+6.390,-3.570,-146.611*7D
$GPRMC,093623.294,A,3101.8358449,N,12126.6281646,E,20.16,267.57,200323,0.0,E,R,V*59
$GPGGA,093623.294,3101.8358449,N,12126.6281646,E,5,37,1.0,5.694,M,11.107,M,0.0,0000*7A
$GPESA,093623.294,+8.660,+5.696,-0.308,+6.470,-3.536,-146.506*7F
$GPRMC,093623.394,A,3101.8361563,N,12126.6287107,E,20.34,267.32,200323,0.0,E,R,V*5C
$GPGGA,093623.394,3101.8361563,N,12126.6287107,E,5,37,1.0,5.662,M,11.107,M,0.0,0000*75
$GPESA,093623.394,+8.699,+5.805,-0.320,+6.396,-3.439,-146.425*77
$GPRMC,093623.494,A,3101.8364747,N,12126.6292594,E,20.49,267.01,200323,0.0,E,R,V*5A
$GPGGA,093623.494,3101.8364747,N,12126.6292594,E,5,37,1.0,5.629,M,11.107,M,0.0,0000*76
$GPESA,093623.494,+8.704,+5.935,-0.328,+6.322,-3.424,-146.380*74
$GPRMC,093623.594,A,3101.8368005,N,12126.6298092,E,20.78,266.57,200323,0.0,E,R,V*5F
$GPGGA,093623.594,3101.8368005,N,12126.6298092,E,5,37,1.0,5.594,M,11.108,M,0.0,0000*79
$GPESA,093623.594,+8.769,+6.099,-0.367,+6.264,-3.365,-146.320*72
$GPRMC,093623.694,A,3101.8371345,N,12126.6303611,E,20.93,266.15,200323,0.0,E,R,V*5E
$GPGGA,093623.694,3101.8371345,N,12126.6303611,E,5,37,1.0,5.556,M,11.108,M,0.0,0000*75
$GPESA,093623.694,+8.765,+6.238,-0.391,+6.270,-3.364,-146.279*74
$GPRMC,093623.794,A,3101.8374772,N,12126.6309140,E,21.18,265.88,200323,0.0,E,R,V*56
$GPGGA,093623.794,3101.8374772,N,12126.6309140,E,5,37,1.0,5.517,M,11.108,M,0.0,0000*7D
$GPESA,093623.794,+8.806,+6.406,-0.389,+6.341,-3.381,-146.231*79
$GPRMC,093623.894,A,3101.8378275,N,12126.6314667,E,21.29,265.56,200323,0.0,E,R,V*58
$GPGGA,093623.894,3101.8378275,N,12126.6314667,E,5,37,1.0,5.478,M,11.108,M,0.0,0000*7A
$GPESA,093623.894,+8.783,+6.531,-0.392,+6.372,-3.358,-146.180*76
$GPRMC,093623.994,A,3101.8381860,N,12126.6320202,E,21.47,265.06,200323,0.0,E,R,V*5C
$GPGGA,093623.994,3101.8381860,N,12126.6320202,E,5,37,1.0,5.436,M,11.108,M,0.0,0000*79
$GPESA,093623.994,+8.781,+6.683,-0.434,+6.488,-3.302,-146.108*79
$GPRMC,093624.094,A,3101.8385521,N,12126.6325744,E,21.71,264.93,200323,0.0,E,R,V*54
$GPGGA,093624.094,3101.8385521,N,12126.6325744,E,5,37,1.0,5.395,M,11.108,M,0.0,0000*77
$GPESA,093624.094,+8.825,+6.831,-0.413,+6.550,-3.114,-146.006*7A
$GPRMC,093624.194,A,3101.8389275,N,12126.6331312,E,22.01,264.58,200323,0.0,E,R,V*5E
$GPGGA,093624.194,3101.8389275,N,12126.6331312,E,5,37,1.0,5.353,M,11.108,M,0.0,0000*74
$GPESA,093624.194,+8.866,+7.030,-0.417,+6.511,-3.112,-145.913*7D
$GPRMC,093624.294,A,3101.8393133,N,12126.6336892,E,22.25,264.13,200323,0.0,E,R,V*5A
$GPGGA,093624.294,3101.8393133,N,12126.6336892,E,5,37,1.0,5.308,M,11.108,M,0.0,0000*77
$GPESA,093624.294,+8.875,+7.211,-0.445,+6.570,-3.189,-145.858*71
$GPRMC,093624.394,A,3101.8397075,N,12126.6342466,E,22.44,263.63,200323,0.0,E,R,V*5F
$GPGGA,093624.394,3101.8397075,N,12126.6342466,E,5,37,1.0,5.261,M,11.108,M,0.0,0000*7B
$GPESA,093624.394,+8.868,+7.371,-0.486,+6.622,-3.211,-145.795*7C
$GPRMC,093624.494,A,3101.8401101,N,12126.6348019,E,22.55,263.24,200323,0.0,E,R,V*57
$GPGGA,093624.494,3101.8401101,N,12126.6348019,E,5,37,1.0,5.212,M,11.108,M,0.0,0000*74
$GPESA,093624.494,+8.824,+7.519,-0.495,+6.668,-3.046,-145.704*7F
$GPRMC,093624.594,A,3101.8405232,N,12126.6353597,E,22.92,262.97,200323,0.0,E,R,V*5A
$GPGGA,093624.594,3101.8405232,N,12126.6353597,E,5,37,1.0,5.163,M,11.108,M,0.0,0000*7E
$GPESA,093624.594,+8.888,+7.732,-0.491,+6.673,-3.035,-145.644*7C
$GPRMC,093624.694,A,3101.8409468,N,12126.6359176,E,23.11,262.39,200323,0.0,E,R,V*53
$GPGGA,093624.694,3101.8409468,N,12126.6359176,E,5,37,1.0,5.112,M,11.108,M,0.0,0000*7F
$GPESA,093624.694,+8.848,+7.920,-0.533,+6.667,-3.094,-145.616*7E
$GPRMC,093624.794,A,3101.8413802,N,12126.6364734,E,23.27,262.02,200323,0.0,E,R,V*5A
$GPGGA,093624.794,3101.8413802,N,12126.6364734,E,5,37,1.0,5.057,M,11.108,M,0.0,0000*7B
$GPESA,093624.794,+8.821,+8.070,-0.547,+6.759,-3.104,-145.544*70
$GPRMC,093624.894,A,3101.8418209,N,12126.6370287,E,23.59,261.65,200323,0.0,E,R,V*5C
$GPGGA,093624.894,3101.8418209,N,12126.6370287,E,5,37,1.0,5.001,M,11.108,M,0.0,0000*75
$GPESA,093624.894,+8.888,+8.240,-0.595,+6.706,-2.924,-145.457*70
$GPRMC,093624.994,A,3101.8422713,N,12126.6375866,E,23.80,261.17,200323,0.0,E,R,V*5B
$GPGGA,093624.994,3101.8422713,N,12126.6375866,E,5,37,1.0,4.940,M,11.108,M,0.0,0000*7E
$GPESA,093624.994,+8.866,+8.424,-0.627,+6.489,-2.937,-145.394*71
$GPRMC,093625.094,A,3101.8427329,N,12126.6381431,E,24.09,260.73,200323,0.0,E,R,V*5B
$GPGGA,093625.094,3101.8427329,N,12126.6381431,E,5,37,1.0,4.878,M,11.108,M,0.0,0000*71
$GPESA,093625.094,+8.855,+8.645,-0.639,+6.376,-2.888,-145.304*78
$GPRMC,093625.194,A,3101.8432068,N,12126.6386970,E,24.24,260.19,200323,0.0,E,R,V*54
$GPGGA,093625.194,3101.8432068,N,12126.6386970,E,5,37,1.0,4.814,M,11.108,M,0.0,0000*77
$GPESA,093625.194,+8.762,+8.852,-0.648,+6.452,-2.909,-145.247*73
$GPRMC,093625.294,A,3101.8436932,N,12126.6392479,E,24.50,259.62,200323,0.0,E,R,V*51
$GPGGA,093625.294,3101.8436932,N,12126.6392479,E,5,37,1.0,4.746,M,11.108,M,0.0,0000*7F
$GPESA,093625.294,+8.729,+9.062,-0.692,+6.798,-2.893,-145.173*71
$GPRMC,093625.395,A,3101.8441883,N,12126.6397985,E,24.75,259.50,200323,0.0,E,R,V*57
$GPGGA,093625.395,3101.8441883,N,12126.6397985,E,5,37,1.0,4.676,M,11.108,M,0.0,0000*7D
$GPESA,093625.395,+8.769,+9.208,-0.683,+7.018,-2.836,-145.096*70
$GPRMC,093625.495,A,3101.8446915,N,12126.6403509,E,24.98,259.28,200323,0.0,E,R,V*57
$GPGGA,093625.495,3101.8446915,N,12126.6403509,E,5,37,1.0,4.607,M,11.108,M,0.0,0000*77
$GPESA,093625.495,+8.760,+9.376,-0.670,+6.921,-2.832,-145.049*7E
$GPRMC,093625.595,A,3101.8456762,N,12126.6394454,E,25.17,258.49,200323,0.0,E,R,V*59
$GPGGA,093625.595,3101.8456762,N,12126.6394454,E,5,37,1.0,4.770,M,11.108,M,0.0,0000*78
$GPESA,093625.595,+8.616,+9.638,-0.698,+6.846,-2.812,-145.176*79
$GPRMC,093625.695,A,3101.8462033,N,12126.6399851,E,25.35,257.85,200323,0.0,E,R,V*55
$GPGGA,093625.695,3101.8462033,N,12126.6399851,E,5,37,1.0,4.698,M,11.108,M,0.0,0000*7C
$GPESA,093625.695,+8.542,+9.828,-0.755,+6.896,-2.800,-145.113*7A
$GPRMC,093625.795,A,3101.8467415,N,12126.6405239,E,25.68,257.50,200323,0.0,E,R,V*57
$GPGGA,093625.795,3101.8467415,N,12126.6405239,E,5,37,1.0,4.620,M,11.108,M,0.0,0000*7D
$GPESA,093625.795,+8.576,+10.016,-0.796,+7.240,-2.861,-145.060*4C
$GPRMC,093625.895,A,3101.8472866,N,12126.6410628,E,25.86,257.53,200323,0.0,E,R,V*57
$GPGGA,093625.895,3101.8472866,N,12126.6410628,E,5,37,1.0,4.543,M,11.108,M,0.0,0000*78
$GPESA,093625.895,+8.595,+10.125,-0.757,+7.347,-2.844,-144.969*42
$GPRMC,093625.995,A,3101.8478403,N,12126.6416050,E,26.19,257.25,200323,0.0,E,R,V*58
$GPGGA,093625.995,3101.8478403,N,12126.6416050,E,5,37,1.0,4.466,M,11.108,M,0.0,0000*75
$GPESA,093625.995,+8.630,+10.317,-0.778,+7.301,-2.981,-144.979*4A
$GPRMC,093626.095,A,3101.8484017,N,12126.6421452,E,26.35,256.99,200323,0.0,E,R,V*5A
$GPGGA,093626.095,3101.8484017,N,12126.6421452,E,5,37,1.0,4.389,M,11.108,M,0.0,0000*79
$GPESA,093626.095,+8.589,+10.456,-0.774,+7.278,-2.941,-144.913*40
$GPRMC,093626.195,A,3101.8489723,N,12126.6426845,E,26.53,256.52,200323,0.0,E,R,V*5C
$GPGGA,093626.195,3101.8489723,N,12126.6426845,E,5,37,1.0,4.309,M,11.108,M,0.0,0000*70
$GPESA,093626.195,+8.544,+10.609,-0.824,+7.289,-3.008,-144.859*46
$GPRMC,093626.295,A,3101.8495520,N,12126.6432210,E,26.72,256.23,200323,0.0,E,R,V*59
$GPGGA,093626.295,3101.8495520,N,12126.6432210,E,5,37,1.0,4.227,M,11.108,M,0.0,0000*7D
$GPESA,093626.295,+8.505,+10.768,-0.825,+7.548,-2.825,-144.774*4B
$GPRMC,093626.395,A,3101.8501411,N,12126.6437583,E,27.06,256.18,200323,0.0,E,R,V*55
$GPGGA,093626.395,3101.8501411,N,12126.6437583,E,5,37,1.0,4.146,M,11.108,M,0.0,0000*7F
$GPESA,093626.395,+8.552,+10.957,-0.797,+7.784,-2.713,-144.679*48
$GPRMC,093626.495,A,3101.8507396,N,12126.6442949,E,27.34,256.06,200323,0.0,E,R,V*5A
$GPGGA,093626.495,3101.8507396,N,12126.6442949,E,5,37,1.0,4.066,M,11.108,M,0.0,0000*7D
$GPESA,093626.495,+8.582,+11.119,-0.789,+8.049,-2.624,-144.599*4F
$GPRMC,093626.595,A,3101.8513457,N,12126.6448330,E,27.47,255.73,200323,0.0,E,R,V*5F
$GPGGA,093626.595,3101.8513457,N,12126.6448330,E,5,37,1.0,3.985,M,11.108,M,0.0,0000*7E
$GPESA,093626.595,+8.524,+11.242,-0.804,+8.137,-2.662,-144.570*48
$GPRMC,093626.695,A,3101.8519592,N,12126.6453702,E,27.70,255.37,200323,0.0,E,R,V*55
$GPGGA,093626.695,3101.8519592,N,12126.6453702,E,5,36,1.0,3.904,M,11.108,M,0.0,0000*78
$GPESA,093626.695,+8.499,+11.409,-0.833,+8.146,-2.532,-144.508*4E
$GPRMC,093626.795,A,3101.8525827,N,12126.6459078,E,28.11,255.38,200323,0.0,E,R,V*5F
$GPGGA,093626.795,3101.8525827,N,12126.6459078,E,5,36,1.0,3.820,M,11.108,M,0.0,0000*72
$GPESA,093626.795,+8.583,+11.609,-0.808,+8.177,-2.436,-144.471*47
$GPRMC,093626.895,A,3101.8532166,N,12126.6464461,E,28.47,254.96,200323,0.0,E,R,V*5E
$GPGGA,093626.895,3101.8532166,N,12126.6464461,E,5,36,1.0,3.737,M,11.108,M,0.0,0000*7C
$GPESA,093626.895,+8.593,+11.826,-0.861,+8.214,-2.504,-144.452*42
$GPRMC,093626.995,A,3101.8538598,N,12126.6469818,E,28.68,254.68,200323,0.0,E,R,V*53
$GPGGA,093626.995,3101.8538598,N,12126.6469818,E,5,36,1.0,3.650,M,11.108,M,0.0,0000*7D
$GPESA,093626.995,+8.557,+11.989,-0.866,+8.290,-2.530,-144.424*42
$GPRMC,093627.095,A,3101.8545112,N,12126.6475163,E,28.85,254.33,200323,0.0,E,R,V*52
$GPGGA,093627.095,3101.8545112,N,12126.6475163,E,5,36,1.0,3.561,M,11.108,M,0.0,0000*70
$GPESA,093627.095,+8.516,+12.123,-0.900,+8.366,-2.526,-144.391*43
$GPRMC,093627.195,A,3101.8551719,N,12126.6480516,E,29.14,254.09,200323,0.0,E,R,V*57
$GPGGA,093627.195,3101.8551719,N,12126.6480516,E,5,36,1.0,3.471,M,11.108,M,0.0,0000*75
$GPESA,093627.195,+8.519,+12.300,-0.913,+8.436,-2.491,-144.357*49
$GPRMC,093627.295,A,3101.8558428,N,12126.6485856,E,29.41,253.85,200323,0.0,E,R,V*53
$GPGGA,093627.295,3101.8558428,N,12126.6485856,E,5,36,1.0,3.382,M,11.108,M,0.0,0000*79
$GPESA,093627.295,+8.482,+12.494,-0.898,+8.488,-2.501,-144.352*49
$GPRMC,093627.395,A,3101.8565239,N,12126.6491175,E,29.62,253.50,200323,0.0,E,R,V*5E
$GPGGA,093627.395,3101.8565239,N,12126.6491175,E,5,36,1.0,3.291,M,11.108,M,0.0,0000*7E
$GPESA,093627.395,+8.436,+12.654,-0.922,+8.645,-2.589,-144.327*48
$GPRMC,093627.495,A,3101.8572136,N,12126.6496485,E,29.98,253.21,200323,0.0,E,R,V*5D
$GPGGA,093627.495,3101.8572136,N,12126.6496485,E,5,36,1.0,3.196,M,11.108,M,0.0,0000*7A
$GPESA,093627.495,+8.495,+12.835,-0.988,+8.807,-2.579,-144.303*4E
$GPRMC,093627.595,A,3101.8579127,N,12126.6501816,E,30.18,253.12,200323,0.0,E,R,V*5E
$GPGGA,093627.595,3101.8579127,N,12126.6501816,E,5,36,1.0,3.099,M,11.109,M,0.0,0000*76
$GPESA,093627.595,+8.479,+12.974,-0.962,+8.861,-2.765,-144.303*42
$GPRMC,093627.695,A,3101.8586199,N,12126.6507134,E,30.41,252.91,200323,0.0,E,R,V*51
$GPGGA,093627.695,3101.8586199,N,12126.6507134,E,5,36,1.0,3.004,M,11.109,M,0.0,0000*7B
$GPESA,093627.695,+8.454,+13.131,-0.959,+8.728,-2.878,-144.302*4E
$GPRMC,093627.795,A,3101.8593340,N,12126.6512414,E,30.57,252.40,200323,0.0,E,R,V*5A
$GPGGA,093627.795,3101.8593340,N,12126.6512414,E,5,36,1.0,2.906,M,11.109,M,0.0,0000*71
$GPESA,093627.795,+8.379,+13.270,-1.027,+8.599,-2.735,-144.259*41
$GPRMC,093627.895,A,3101.8600585,N,12126.6517685,E,30.90,252.15,200323,0.0,E,R,V*57
$GPGGA,093627.895,3101.8600585,N,12126.6517685,E,5,36,1.0,2.801,M,11.109,M,0.0,0000*71
$GPESA,093627.895,+8.389,+13.463,-1.053,+8.606,-2.714,-144.220*4E
$GPRMC,093627.995,A,3101.8607944,N,12126.6522963,E,31.23,251.96,200323,0.0,E,R,V*50
$GPGGA,093627.995,3101.8607944,N,12126.6522963,E,5,36,1.0,2.697,M,11.109,M,0.0,0000*76
$GPESA,093627.995,+8.368,+13.674,-1.033,+8.597,-2.895,-144.271*4B
$GPRMC,093628.096,A,3101.8615404,N,12126.6528200,E,31.42,251.53,200323,0.0,E,R,V*55
$GPGGA,093628.096,3101.8615404,N,12126.6528200,E,5,36,1.0,2.593,M,11.109,M,0.0,0000*7A
$GPESA,093628.096,+8.264,+13.851,-1.051,+8.735,-2.962,-144.258*46
$GPRMC,093628.196,A,3101.8622954,N,12126.6533386,E,31.62,251.23,200323,0.0,E,R,V*58
$GPGGA,093628.196,3101.8622954,N,12126.6533386,E,5,36,1.0,2.484,M,11.109,M,0.0,0000*75
$GPESA,093628.196,+8.212,+14.001,-1.068,+9.055,-2.849,-144.189*41
$GPRMC,093628.296,A,3101.8630589,N,12126.6538573,E,31.88,251.06,200323,0.0,E,R,V*50
$GPGGA,093628.296,3101.8630589,N,12126.6538573,E,5,36,1.0,2.376,M,11.109,M,0.0,0000*74
$GPESA,093628.296,+8.209,+14.156,-1.074,+9.250,-2.809,-144.183*4F
$GPRMC,093628.396,A,3101.8638304,N,12126.6543773,E,32.15,250.98,200323,0.0,E,R,V*55
$GPGGA,093628.396,3101.8638304,N,12126.6543773,E,5,36,1.0,2.269,M,11.109,M,0.0,0000*7F
$GPESA,093628.396,+8.237,+14.301,-1.073,+9.213,-2.791,-144.179*48
$GPRMC,093628.496,A,3101.8646099,N,12126.6548969,E,32.48,250.73,200323,0.0,E,R,V*5F
$GPGGA,093628.496,3101.8646099,N,12126.6548969,E,5,36,1.0,2.159,M,11.109,M,0.0,0000*78
$GPESA,093628.496,+8.259,+14.485,-1.117,+9.047,-2.756,-144.140*4D
$GPRMC,093628.596,A,3101.8653994,N,12126.6554137,E,32.77,250.35,200323,0.0,E,R,V*5E
$GPGGA,093628.596,3101.8653994,N,12126.6554137,E,5,36,1.0,2.046,M,11.109,M,0.0,0000*78
$GPESA,093628.596,+8.196,+14.688,-1.139,+9.006,-2.653,-144.099*4B
$GPRMC,093628.696,A,3101.8662001,N,12126.6559280,E,33.05,250.01,200323,0.0,E,R,V*5B
$GPGGA,093628.696,3101.8662001,N,12126.6559280,E,5,36,1.0,1.932,M,11.109,M,0.0,0000*77
$GPESA,093628.696,+8.145,+14.882,-1.162,+9.125,-2.675,-144.113*4B
$GPRMC,093628.796,A,3101.8670110,N,12126.6564403,E,33.31,249.75,200323,0.0,E,R,V*57
$GPGGA,093628.796,3101.8670110,N,12126.6564403,E,5,36,1.0,1.814,M,11.109,M,0.0,0000*72
$GPESA,093628.796,+8.116,+15.048,-1.185,+9.361,-2.699,-144.119*40
$GPRMC,093628.896,A,3101.8678304,N,12126.6569508,E,33.54,249.69,200323,0.0,E,R,V*5E
$GPGGA,093628.896,3101.8678304,N,12126.6569508,E,5,36,1.0,1.694,M,11.109,M,0.0,0000*73
$GPESA,093628.896,+8.115,+15.180,-1.167,+9.567,-2.676,-144.111*4C
$GPRMC,093628.996,A,3101.8686561,N,12126.6574615,E,33.80,249.56,200323,0.0,E,R,V*5D
$GPGGA,093628.996,3101.8686561,N,12126.6574615,E,5,36,1.0,1.577,M,11.109,M,0.0,0000*7B
$GPESA,093628.996,+8.135,+15.324,-1.183,+9.382,-2.633,-144.129*4E
$GPRMC,093629.096,A,3101.8694898,N,12126.6579713,E,34.06,249.18,200323,0.0,E,R,V*54
$GPGGA,093629.096,3101.8694898,N,12126.6579713,E,5,36,1.0,1.456,M,11.109,M,0.0,0000*73
$GPESA,093629.096,+8.096,+15.493,-1.241,+9.176,-2.574,-144.123*4B
$GPRMC,093629.196,A,3101.8703334,N,12126.6584795,E,34.33,248.85,200323,0.0,E,R,V*58
$GPGGA,093629.196,3101.8703334,N,12126.6584795,E,5,36,1.0,1.329,M,11.109,M,0.0,0000*73
$GPESA,093629.196,+8.063,+15.661,-1.286,+9.023,-2.611,-144.145*45
$GPRMC,093629.296,A,3101.8711860,N,12126.6589865,E,34.61,248.55,200323,0.0,E,R,V*55
$GPGGA,093629.296,3101.8711860,N,12126.6589865,E,5,36,1.0,1.198,M,11.109,M,0.0,0000*7C
$GPESA,093629.296,+8.039,+15.829,-1.331,+8.862,-2.707,-144.186*43
$GPRMC,093629.396,A,3101.8720489,N,12126.6594932,E,35.03,248.27,200323,0.0,E,R,V*52
$GPGGA,093629.396,3101.8720489,N,12126.6594932,E,5,36,1.0,1.061,M,11.109,M,0.0,0000*7C
$GPESA,093629.396,+8.084,+16.045,-1.404,+8.784,-2.846,-144.213*46
$GPRMC,093629.496,A,3101.8729211,N,12126.6599986,E,35.12,247.98,200323,0.0,E,R,V*52
$GPGGA,093629.496,3101.8729211,N,12126.6599986,E,5,36,1.0,0.922,M,11.109,M,0.0,0000*78
$GPESA,093629.496,+7.962,+16.161,-1.390,+8.709,-3.046,-144.280*44
$GPRMC,093629.596,A,3101.8738016,N,12126.6604993,E,35.39,247.65,200323,0.0,E,R,V*5E
$GPGGA,093629.596,3101.8738016,N,12126.6604993,E,5,36,1.0,0.782,M,11.109,M,0.0,0000*7B
$GPESA,093629.596,+7.912,+16.337,-1.426,+8.739,-3.100,-144.321*43
$GPRMC,093629.696,A,3101.8746906,N,12126.6609967,E,35.74,247.52,200323,0.0,E,R,V*57
$GPGGA,093629.696,3101.8746906,N,12126.6609967,E,5,36,1.0,0.639,M,11.109,M,0.0,0000*7E
$GPESA,093629.696,+7.930,+16.525,-1.438,+8.796,-3.049,-144.321*43
$GPRMC,093629.796,A,3101.8755895,N,12126.6614946,E,35.93,247.30,200323,0.0,E,R,V*5D
$GPGGA,093629.796,3101.8755895,N,12126.6614946,E,5,36,1.0,0.493,M,11.109,M,0.0,0000*7B
$GPESA,093629.796,+7.878,+16.660,-1.445,+8.886,-3.175,-144.392*4F
$GPRMC,093629.896,A,3101.8764942,N,12126.6619872,E,36.00,247.01,200323,0.0,E,R,V*5B
$GPGGA,093629.896,3101.8764942,N,12126.6619872,E,5,36,1.0,0.348,M,11.109,M,0.0,0000*77
$GPESA,093629.896,+7.774,+16.749,-1.454,+8.917,-3.045,-144.369*46
$GPRMC,093629.996,A,3101.8774053,N,12126.6624762,E,36.26,246.83,200323,0.0,E,R,V*5D
$GPGGA,093629.996,3101.8774053,N,12126.6624762,E,5,36,1.0,0.202,M,11.109,M,0.0,0000*71
$GPESA,093629.996,+7.759,+16.899,-1.471,+8.837,-2.748,-144.310*4B
$GPRMC,093630.096,A,3101.8783263,N,12126.6629653,E,36.64,246.59,200323,0.0,E,R,V*5A
$GPGGA,093630.096,3101.8783263,N,12126.6629653,E,5,36,1.0,0.051,M,11.109,M,0.0,0000*73
$GPESA,093630.096,+7.779,+17.102,-1.525,+8.785,-2.614,-144.307*4A
$GPRMC,093630.196,A,3101.8792567,N,12126.6634523,E,36.87,246.35,200323,0.0,E,R,V*57
$GPGGA,093630.196,3101.8792567,N,12126.6634523,E,5,36,1.0,-0.101,M,11.109,M,0.0,0000*50
$GPESA,093630.196,+7.709,+17.265,-1.521,+8.825,-2.427,-144.256*48
$GPRMC,093630.296,A,3101.8801971,N,12126.6639362,E,37.20,246.14,200323,0.0,E,R,V*5B
$GPGGA,093630.296,3101.8801971,N,12126.6639362,E,5,36,1.0,-0.254,M,11.109,M,0.0,0000*50
$GPESA,093630.296,+7.680,+17.461,-1.531,+8.984,-2.257,-144.203*43
$GPRMC,093630.396,A,3101.8811474,N,12126.6644198,E,37.50,245.96,200323,0.0,E,R,V*50
$GPGGA,093630.396,3101.8811474,N,12126.6644198,E,5,36,1.0,-0.409,M,11.109,M,0.0,0000*5B
$GPESA,093630.396,+7.672,+17.632,-1.554,+9.193,-2.236,-144.219*4B
$GPRMC,093630.496,A,3101.8821060,N,12126.6649027,E,37.73,245.85,200323,0.0,E,R,V*5E
$GPGGA,093630.496,3101.8821060,N,12126.6649027,E,5,36,1.0,-0.565,M,11.109,M,0.0,0000*5D
$GPESA,093630.496,+7.654,+17.768,-1.549,+9.369,-2.177,-144.209*4A
$GPRMC,093630.596,A,3101.8830715,N,12126.6653851,E,38.02,245.83,200323,0.0,E,R,V*57
$GPGGA,093630.596,3101.8830715,N,12126.6653851,E,5,36,1.0,-0.720,M,11.109,M,0.0,0000*58
$GPESA,093630.596,+7.687,+17.916,-1.548,+9.329,-2.143,-144.193*40
$GPRMC,093630.696,A,3101.8840454,N,12126.6658674,E,38.29,245.56,200323,0.0,E,R,V*56
$GPGGA,093630.696,3101.8840454,N,12126.6658674,E,5,36,1.0,-0.877,M,11.109,M,0.0,0000*55
$GPESA,093630.696,+7.652,+18.082,-1.586,+9.216,-2.152,-144.217*40
$GPRMC,093630.797,A,3101.8850287,N,12126.6663461,E,38.52,245.26,200323,0.0,E,R,V*5A
$GPGGA,093630.797,3101.8850287,N,12126.6663461,E,5,36,1.0,-1.038,M,11.109,M,0.0,0000*50
$GPESA,093630.797,+7.577,+18.238,-1.610,+9.228,-2.116,-144.191*4B
$GPRMC,093630.897,A,3101.8860210,N,12126.6668219,E,38.88,245.07,200323,0.0,E,R,V*5E
$GPGGA,093630.897,3101.8860210,N,12126.6668219,E,5,36,1.0,-1.200,M,11.109,M,0.0,0000*59
$GPESA,093630.897,+7.575,+18.439,-1.636,+9.310,-2.016,-144.126*42
$GPRMC,093630.997,A,3101.8870232,N,12126.6672962,E,39.12,244.88,200323,0.0,E,R,V*56
$GPGGA,093630.997,3101.8870232,N,12126.6672962,E,5,36,1.0,-1.363,M,11.109,M,0.0,0000*51
$GPESA,093630.997,+7.525,+18.592,-1.638,+9.440,-1.971,-144.090*4D
$GPRMC,093631.097,A,3101.8880331,N,12126.6677680,E,39.33,244.73,200323,0.0,E,R,V*52
$GPGGA,093631.097,3101.8880331,N,12126.6677680,E,5,36,1.0,-1.528,M,11.109,M,0.0,0000*5B
$GPESA,093631.097,+7.495,+18.723,-1.644,+9.533,-1.842,-144.018*48
$GPRMC,093631.197,A,3101.8890510,N,12126.6682370,E,39.61,244.53,200323,0.0,E,R,V*52
$GPGGA,093631.197,3101.8890510,N,12126.6682370,E,5,36,1.0,-1.692,M,11.109,M,0.0,0000*5C
$GPESA,093631.197,+7.450,+18.894,-1.651,+9.549,-1.637,-143.959*4D
$GPRMC,093631.297,A,3101.8900789,N,12126.6687048,E,39.87,244.31,200323,0.0,E,R,V*5A
$GPGGA,093631.297,3101.8900789,N,12126.6687048,E,5,36,1.0,-1.858,M,11.109,M,0.0,0000*50
$GPESA,093631.297,+7.397,+19.055,-1.664,+9.548,-1.583,-143.931*43
$GPRMC,093631.397,A,3101.8911168,N,12126.6691696,E,40.25,244.02,200323,0.0,E,R,V*56
$GPGGA,093631.397,3101.8911168,N,12126.6691696,E,5,36,1.0,-2.027,M,11.109,M,0.0,0000*59
$GPESA,093631.397,+7.362,+19.276,-1.708,+9.606,-1.453,-143.864*44
$GPRMC,093631.497,A,3101.8921653,N,12126.6696300,E,40.59,243.81,200323,0.0,E,R,V*57
$GPGGA,093631.497,3101.8921653,N,12126.6696300,E,5,36,1.0,-2.197,M,11.109,M,0.0,0000*55
$GPESA,093631.497,+7.306,+19.487,-1.706,+9.731,-1.254,-143.789*4F
$GPRMC,093631.597,A,3101.8932253,N,12126.6700882,E,40.98,243.64,200323,0.0,E,R,V*59
$GPGGA,093631.597,3101.8932253,N,12126.6700882,E,5,36,1.0,-2.368,M,11.109,M,0.0,0000*5F
$GPESA,093631.597,+7.301,+19.702,-1.725,+9.851,-1.163,-143.728*43
$GPRMC,093631.697,A,3101.8942965,N,12126.6705433,E,41.30,243.37,200323,0.0,E,R,V*55
$GPGGA,093631.697,3101.8942965,N,12126.6705433,E,5,36,1.0,-2.542,M,11.109,M,0.0,0000*58
$GPESA,093631.697,+7.236,+19.900,-1.744,+9.937,-1.106,-143.705*43
$GPRMC,093631.797,A,3101.8953790,N,12126.6709950,E,41.58,243.09,200323,0.0,E,R,V*57
$GPGGA,093631.797,3101.8953790,N,12126.6709950,E,5,36,1.0,-2.717,M,11.109,M,0.0,0000*5B
$GPESA,093631.797,+7.158,+20.079,-1.761,+10.030,-1.131,-143.673*71
$GPRMC,093631.897,A,3101.8964721,N,12126.6714470,E,41.96,242.92,200323,0.0,E,R,V*54
$GPGGA,093631.897,3101.8964721,N,12126.6714470,E,5,36,1.0,-2.896,M,11.109,M,0.0,0000*5F
$GPESA,093631.897,+7.169,+20.279,-1.804,+9.965,-1.316,-143.693*4A
$GPRMC,093631.997,A,3101.8963977,N,12126.6667567,E,41.45,241.34,200323,0.0,E,R,V*5C
$GPGGA,093631.997,3101.8963977,N,12126.6667567,E,5,36,1.0,-2.636,M,11.109,M,0.0,0000*52
$GPESA,093631.997,+6.318,+20.288,-1.758,+10.023,-0.997,-145.213*7D
$GPRMC,093632.097,A,3101.8974982,N,12126.6671580,E,41.63,241.23,200323,0.0,E,R,V*56
$GPGGA,093632.097,3101.8974982,N,12126.6671580,E,5,36,1.0,-2.817,M,11.109,M,0.0,0000*57
$GPESA,093632.097,+6.343,+20.378,-1.811,+9.867,-1.075,-145.218*4A
$GPRMC,093632.197,A,3101.8986116,N,12126.6675571,E,42.24,240.71,200323,0.0,E,R,V*53
$GPGGA,093632.197,3101.8986116,N,12126.6675571,E,5,36,1.0,-3.004,M,11.109,M,0.0,0000*5F
$GPESA,093632.197,+6.294,+20.707,-1.932,+9.741,-1.302,-145.236*48
$GPRMC,093632.297,A,3101.8997377,N,12126.6679511,E,42.57,240.95,200323,0.0,E,R,V*51
$GPGGA,093632.297,3101.8997377,N,12126.6679511,E,5,36,1.0,-3.188,M,11.109,M,0.0,0000*56
$GPESA,093632.297,+6.293,+20.897,-1.798,+9.517,-1.359,-145.267*4F
$GPRMC,093632.397,A,3101.9008777,N,12126.6683361,E,42.74,239.72,200323,0.0,E,R,V*58
$GPGGA,093632.397,3101.9008777,N,12126.6683361,E,5,36,1.0,-3.378,M,11.109,M,0.0,0000*54
$GPESA,093632.397,+5.912,+21.086,-1.965,+9.849,-1.486,-145.281*41
$GPRMC,093632.497,A,3101.9020302,N,12126.6687116,E,43.47,240.08,200323,0.0,E,R,V*57
$GPGGA,093632.497,3101.9020302,N,12126.6687116,E,5,36,1.0,-3.571,M,11.109,M,0.0,0000*56
$GPESA,093632.497,+6.048,+21.451,-1.868,+10.341,-1.166,-145.182*71
$GPRMC,093632.597,A,3101.9031928,N,12126.6690846,E,43.64,239.97,200323,0.0,E,R,V*57
$GPGGA,093632.597,3101.9031928,N,12126.6690846,E,5,36,1.0,-3.762,M,11.109,M,0.0,0000*5F
$GPESA,093632.597,+5.976,+21.560,-1.837,+10.479,-1.193,-145.182*78
$GPRMC,093632.697,A,3101.9043654,N,12126.6694563,E,43.92,239.44,200323,0.0,E,R,V*5C
$GPGGA,093632.697,3101.9043654,N,12126.6694563,E,5,36,1.0,-3.955,M,11.109,M,0.0,0000*59
$GPESA,093632.697,+5.838,+21.741,-1.921,+10.491,-1.478,-145.258*75
$GPRMC,093632.797,A,3101.9055460,N,12126.6698216,E,44.14,238.98,200323,0.0,E,R,V*5F
$GPGGA,093632.797,3101.9055460,N,12126.6698216,E,5,36,1.0,-4.150,M,11.109,M,0.0,0000*59
$GPESA,093632.797,+5.716,+21.883,-1.995,+10.533,-1.276,-145.188*76
$GPRMC,093632.897,A,3101.9067374,N,12126.6701820,E,44.55,238.80,200323,0.0,E,R,V*51
$GPGGA,093632.897,3101.9067374,N,12126.6701820,E,5,34,1.0,-4.347,M,11.109,M,0.0,0000*5D
$GPESA,093632.897,+5.669,+22.117,-1.998,+10.648,-0.988,-145.085*72
$GPRMC,093632.997,A,3101.9079412,N,12126.6705404,E,44.99,238.77,200323,0.0,E,R,V*5E
$GPGGA,093632.997,3101.9079412,N,12126.6705404,E,5,34,1.0,-4.548,M,11.109,M,0.0,0000*53
$GPESA,093632.997,+5.695,+22.345,-2.006,+10.710,-1.045,-145.090*79
$GPRMC,093633.097,A,3101.9091550,N,12126.6708956,E,45.31,238.53,200323,0.0,E,R,V*55
$GPGGA,093633.097,3101.9091550,N,12126.6708956,E,5,34,1.0,-4.752,M,11.109,M,0.0,0000*54
$GPESA,093633.097,+5.643,+22.525,-2.042,+10.793,-1.076,-145.082*72
$GPRMC,093633.197,A,3101.9103777,N,12126.6712478,E,45.56,238.33,200323,0.0,E,R,V*54
$GPGGA,093633.197,3101.9103777,N,12126.6712478,E,5,34,1.0,-4.955,M,11.109,M,0.0,0000*5B
$GPESA,093633.197,+5.565,+22.674,-2.043,+10.742,-1.090,-145.036*79
$GPRMC,093633.297,A,3101.9116102,N,12126.6715942,E,45.87,238.04,200323,0.0,E,R,V*5C
$GPGGA,093633.297,3101.9116102,N,12126.6715942,E,5,34,1.0,-5.159,M,11.109,M,0.0,0000*5E
$GPESA,093633.297,+5.466,+22.863,-2.060,+10.800,-0.880,-144.948*71
$GPRMC,093633.397,A,3101.9128533,N,12126.6719369,E,46.16,237.82,200323,0.0,E,R,V*53
$GPGGA,093633.397,3101.9128533,N,12126.6719369,E,5,34,1.0,-5.366,M,11.109,M,0.0,0000*55
$GPESA,093633.397,+5.414,+23.024,-2.095,+10.887,-0.823,-144.908*77
$GPRMC,093633.498,A,3101.9141051,N,12126.6722775,E,46.49,237.62,200323,0.0,E,R,V*50
$GPGGA,093633.498,3101.9141051,N,12126.6722775,E,5,34,1.0,-5.580,M,11.109,M,0.0,0000*5C
$GPESA,093633.498,+5.388,+23.203,-2.141,+10.961,-0.767,-144.853*7B
$GPRMC,093633.598,A,3101.9153657,N,12126.6726163,E,46.79,237.62,200323,0.0,E,R,V*54
$GPGGA,093633.598,3101.9153657,N,12126.6726163,E,5,34,1.0,-5.793,M,11.109,M,0.0,0000*5B
$GPESA,093633.598,+5.368,+23.371,-2.100,+10.913,-0.716,-144.805*75
$GPRMC,093633.698,A,3101.9166356,N,12126.6729519,E,47.09,237.33,200323,0.0,E,R,V*51
$GPGGA,093633.698,3101.9166356,N,12126.6729519,E,5,34,1.0,-6.004,M,11.109,M,0.0,0000*56
$GPESA,093633.698,+5.289,+23.544,-2.142,+10.802,-0.671,-144.738*7E
$GPRMC,093633.798,A,3101.9179165,N,12126.6732826,E,47.49,237.04,200323,0.0,E,R,V*57
$GPGGA,093633.798,3101.9179165,N,12126.6732826,E,5,34,1.0,-6.223,M,11.109,M,0.0,0000*57
$GPESA,093633.798,+5.239,+23.761,-2.209,+10.983,-0.593,-144.676*71
$GPRMC,093633.898,A,3101.9192081,N,12126.6736122,E,47.82,236.97,200323,0.0,E,R,V*53
$GPGGA,093633.898,3101.9192081,N,12126.6736122,E,5,34,1.0,-6.443,M,11.109,M,0.0,0000*5F
$GPESA,093633.898,+5.208,+23.944,-2.195,+11.158,-0.635,-144.655*72
$GPRMC,093633.998,A,3101.9205085,N,12126.6739390,E,48.12,236.89,200323,0.0,E,R,V*56
$GPGGA,093633.998,3101.9205085,N,12126.6739390,E,5,34,1.0,-6.662,M,11.109,M,0.0,0000*52
$GPESA,093633.998,+5.192,+24.103,-2.200,+11.326,-0.654,-144.609*75
$GPRMC,093634.098,A,3101.9218169,N,12126.6742633,E,48.39,236.77,200323,0.0,E,R,V*5F
$GPGGA,093634.098,3101.9218169,N,12126.6742633,E,5,34,1.0,-6.882,M,11.109,M,0.0,0000*53
$GPESA,093634.098,+5.153,+24.254,-2.203,+11.312,-0.730,-144.591*72
$GPRMC,093634.198,A,3101.9231346,N,12126.6745840,E,48.68,236.52,200323,0.0,E,R,V*54
$GPGGA,093634.198,3101.9231346,N,12126.6745840,E,5,34,1.0,-7.103,M,11.109,M,0.0,0000*5A
$GPESA,093634.198,+5.060,+24.428,-2.221,+11.288,-0.775,-144.563*71
$GPRMC,093634.298,A,3101.9244619,N,12126.6748985,E,49.03,236.29,200323,0.0,E,R,V*5F
$GPGGA,093634.298,3101.9244619,N,12126.6748985,E,5,34,1.0,-7.324,M,11.109,M,0.0,0000*56
$GPESA,093634.298,+4.987,+24.621,-2.241,+11.357,-0.639,-144.482*7A
$GPRMC,093634.398,A,3101.9258003,N,12126.6752121,E,49.41,236.13,200323,0.0,E,R,V*5C
$GPGGA,093634.398,3101.9258003,N,12126.6752121,E,5,34,1.0,-7.551,M,11.109,M,0.0,0000*5E
$GPESA,093634.398,+4.983,+24.820,-2.299,+11.439,-0.717,-144.467*7C
$GPRMC,093634.498,A,3101.9271476,N,12126.6755224,E,49.64,235.90,200323,0.0,E,R,V*58
$GPGGA,093634.498,3101.9271476,N,12126.6755224,E,5,34,1.0,-7.781,M,11.109,M,0.0,0000*5A
$GPESA,093634.498,+4.875,+24.961,-2.291,+11.411,-0.764,-144.447*73
$GPRMC,093634.598,A,3101.9285035,N,12126.6758274,E,49.96,235.80,200323,0.0,E,R,V*55
$GPGGA,093634.598,3101.9285035,N,12126.6758274,E,5,34,1.0,-8.008,M,11.109,M,0.0,0000*52
$GPESA,093634.598,+4.832,+25.142,-2.286,+11.258,-0.742,-144.412*70
$GPRMC,093634.698,A,3101.9298710,N,12126.6761286,E,50.37,235.43,200323,0.0,E,R,V*51
$GPGGA,093634.698,3101.9298710,N,12126.6761286,E,5,34,1.0,-8.241,M,11.109,M,0.0,0000*55
$GPESA,093634.698,+4.734,+25.369,-2.357,+11.236,-0.782,-144.427*7E
$GPRMC,093634.798,A,3101.9312497,N,12126.6764234,E,50.71,235.19,200323,0.0,E,R,V*5E
$GPGGA,093634.798,3101.9312497,N,12126.6764234,E,5,34,1.0,-8.478,M,11.109,M,0.0,0000*5B
$GPESA,093634.798,+4.656,+25.559,-2.386,+11.397,-0.761,-144.399*76
$GPRMC,093634.898,A,3101.9326383,N,12126.6767147,E,51.04,235.03,200323,0.0,E,R,V*58
$GPGGA,093634.898,3101.9326383,N,12126.6767147,E,5,34,1.0,-8.716,M,11.109,M,0.0,0000*5E
$GPESA,093634.898,+4.602,+25.740,-2.399,+11.463,-0.776,-144.348*7A
$GPRMC,093634.998,A,3101.9340374,N,12126.6770022,E,51.39,234.86,200323,0.0,E,R,V*57
$GPGGA,093634.998,3101.9340374,N,12126.6770022,E,5,34,1.0,-8.956,M,11.109,M,0.0,0000*59
$GPESA,093634.998,+4.534,+25.933,-2.404,+11.525,-0.754,-144.304*7F
$GPRMC,093635.098,A,3101.9354463,N,12126.6772850,E,51.75,234.68,200323,0.0,E,R,V*5C
$GPGGA,093635.098,3101.9354463,N,12126.6772850,E,5,34,1.0,-9.198,M,11.109,M,0.0,0000*51
$GPESA,093635.098,+4.479,+26.132,-2.428,+11.517,-0.756,-144.240*79
$GPRMC,093635.198,A,3101.9368668,N,12126.6775639,E,52.11,234.41,200323,0.0,E,R,V*57
$GPGGA,093635.198,3101.9368668,N,12126.6775639,E,5,34,1.0,-9.442,M,11.109,M,0.0,0000*52
$GPESA,093635.198,+4.382,+26.332,-2.453,+11.558,-0.831,-144.231*76
$GPRMC,093635.298,A,3101.9382979,N,12126.6778373,E,52.46,234.18,200323,0.0,E,R,V*57
$GPGGA,093635.298,3101.9382979,N,12126.6778373,E,5,34,1.0,-9.689,M,11.109,M,0.0,0000*59
$GPESA,093635.298,+4.294,+26.529,-2.474,+11.669,-0.828,-144.190*7B
$GPRMC,093635.398,A,3101.9397407,N,12126.6781055,E,52.88,234.00,200323,0.0,E,R,V*5C
$GPGGA,093635.398,3101.9397407,N,12126.6781055,E,5,34,1.0,-9.937,M,11.109,M,0.0,0000*53
$GPESA,093635.398,+4.226,+26.761,-2.484,+11.846,-0.847,-144.168*7F
$GPRMC,093635.498,A,3101.9411945,N,12126.6783703,E,53.23,233.88,200323,0.0,E,R,V*58
$GPGGA,093635.498,3101.9411945,N,12126.6783703,E,5,34,1.0,-10.187,M,11.109,M,0.0,0000*6B
$GPESA,093635.498,+4.194,+26.945,-2.504,+11.981,-0.961,-144.151*76
$GPRMC,093635.598,A,3101.9426575,N,12126.6786311,E,53.49,233.61,200323,0.0,E,R,V*5B
$GPGGA,093635.598,3101.9426575,N,12126.6786311,E,5,34,1.0,-10.439,M,11.109,M,0.0,0000*63
$GPESA,093635.598,+4.093,+27.093,-2.535,+11.982,-1.058,-144.147*76
$GPRMC,093635.698,A,3101.9441284,N,12126.6788850,E,53.79,233.40,200323,0.0,E,R,V*50
$GPGGA,093635.698,3101.9441284,N,12126.6788850,E,5,34,1.0,-10.692,M,11.109,M,0.0,0000*6B
$GPESA,093635.698,+3.996,+27.264,-2.540,+11.845,-0.916,-144.088*7C
$GPRMC,093635.798,A,3101.9456114,N,12126.6791341,E,54.27,233.16,200323,0.0,E,R,V*51
$GPGGA,093635.798,3101.9456114,N,12126.6791341,E,5,34,1.0,-10.948,M,11.109,M,0.0,0000*6D
$GPESA,093635.798,+3.925,+27.522,-2.588,+11.787,-0.884,-144.056*7C
