$GPRMC,093558.300,A,3101.8285618,N,12126.6107412,E,0.00,0.00,200323,0.0,E,A,V*74
$GPGGA,093558.300,3101.8285618,N,12126.6107412,E,1,35,1.0,15.158,M,11.106,M,0.0,0000*41
$GPESA,093558.300,+0.000,+0.000,+0.000,+0.000,+0.000,+0.000*73
$GPRMC,093558.400,A,3101.8285446,N,12126.6107317,E,0.00,0.00,200323,0.0,E,A,V*78
$GPGGA,093558.400,3101.8285446,N,12126.6107317,E,1,35,1.0,15.087,M,11.106,M,0.0,0000*4E
$GPESA,093558.400,+0.000,+0.000,+0.000,+0.000,+0.000,+0.000*74
$GPRMC,093558.500,A,3101.8285434,N,12126.6107314,E,0.00,0.00,200323,0.0,E,A,V*7F
$GPGGA,093558.500,3101.8285434,N,12126.6107314,E,1,35,1.0,15.096,M,11.106,M,0.0,0000*49
$GPESA,093558.500,+0.000,+0.000,+0.000,+0.000,+0.000,+0.000*75
$GPRMC,093558.600,A,3101.8285754,N,12126.6107234,E,0.00,0.00,200323,0.0,E,A,V*7A
$GPGGA,093558.600,3101.8285754,N,12126.6107234,E,1,35,1.0,15.119,M,11.106,M,0.0,0000*4A
$GPESA,093558.600,+0.000,+0.000,+0.000,+0.000,+0.000,+0.000*76
$GPRMC,093558.700,A,3101.8285758,N,12126.6107243,E,0.00,0.00,200323,0.0,E,A,V*77
$GPGGA,093558.700,3101.8285758,N,12126.6107243,E,1,35,1.0,15.123,M,11.106,M,0.0,0000*4E
$GPESA,093558.700,+0.000,+0.000,+0.000,+0.000,+0.000,+0.000*77
$GPRMC,093558.800,A,3101.8285461,N,12126.6107300,E,0.00,0.00,200323,0.0,E,A,V*77
$GPGGA,093558.800,3101.8285461,N,12126.6107300,E,1,34,1.0,15.104,M,11.106,M,0.0,0000*4A
$GPESA,093558.800,+0.000,+0.000,+0.000,+0.000,+0.000,+0.000*78
$GPRMC,093558.900,A,3101.8287026,N,12126.6106096,E,0.00,0.00,200323,0.0,E,A,V*7E
$GPGGA,093558.900,3101.8287026,N,12126.6106096,E,1,35,1.0,15.485,M,11.106,M,0.0,0000*4E
$GPESA,093558.900,+0.000,+0.000,+0.000,+0.000,+0.000,+0.000*79
$GPRMC,093559.000,A,3101.8285430,N,12126.6107301,E,0.00,0.00,200323,0.0,E,A,V*7B
$GPGGA,093559.000,3101.8285430,N,12126.6107301,E,1,34,1.0,15.115,M,11.106,M,0.0,0000*46
$GPESA,093559.000,+0.000,+0.000,+0.000,+0.000,+0.000,+0.000*71
$GPRMC,093559.100,A,3101.8285297,N,12126.6107843,E,0.00,0.00,200323,0.0,E,A,V*7C
$GPGGA,093559.100,3101.8285297,N,12126.6107843,E,1,37,1.0,15.192,M,11.106,M,0.0,0000*4D
$GPESA,093559.100,+0.000,+0.000,+0.000,+0.000,+0.000,+0.000*70
$GPRMC,093559.200,A,3101.8285304,N,12126.6107842,E,0.00,0.00,200323,0.0,E,A,V*75
$GPGGA,093559.200,3101.8285304,N,12126.6107842,E,1,37,1.0,15.186,M,11.106,M,0.0,0000*41
$GPESA,093559.200,+0.000,+0.000,+0.000,+0.000,+0.000,+0.000*73
$GPRMC,093559.300,A,3101.8285327,N,12126.6107849,E,0.00,0.00,200323,0.0,E,A,V*7E
$GPGGA,093559.300,3101.8285327,N,12126.6107849,E,1,37,1.0,15.187,M,11.106,M,0.0,0000*4B
$GPESA,093559.300,+0.000,+0.000,+0.000,+0.000,+0.000,+0.000*72
$GPRMC,093559.400,A,3101.8286983,N,12126.6106845,E,0.00,0.00,200323,0.0,E,A,V*73
$GPGGA,093559.400,3101.8286983,N,12126.6106845,E,1,37,1.0,15.532,M,11.106,M,0.0,0000*4C
$GPESA,093559.400,+0.000,+0.000,+0.000,+0.000,+0.000,+0.000*75
$GPRMC,093559.500,A,3101.8285741,N,12126.6106593,E,0.00,0.00,200323,0.0,E,A,V*77
$GPGGA,093559.500,3101.8285741,N,12126.6106593,E,1,35,1.0,15.827,M,11.106,M,0.0,0000*43
$GPESA,093559.500,+0.000,+0.000,+0.000,+0.000,+0.000,+0.000*74
$GPRMC,093559.600,A,3101.8285337,N,12126.6106497,E,0.00,0.00,200323,0.0,E,A,V*74
$GPGGA,093559.600,3101.8285337,N,12126.6106497,E,1,35,1.0,15.827,M,11.106,M,0.0,0000*40
$GPESA,093559.600,+0.000,+0.000,+0.000,+0.000,+0.000,+0.000*77
$GPRMC,093559.700,A,3101.8285337,N,12126.6106482,E,0.00,0.00,200323,0.0,E,A,V*71
$GPGGA,093559.700,3101.8285337,N,12126.6106482,E,1,35,1.0,15.827,M,11.106,M,0.0,0000*45
$GPESA,093559.700,+0.000,+0.000,+0.000,+0.000,+0.000,+0.000*76
$GPRMC,093559.800,A,3101.8285340,N,12126.6106436,E,0.00,0.00,200323,0.0,E,A,V*71
$GPGGA,093559.800,3101.8285340,N,12126.6106436,E,1,35,1.0,15.822,M,11.106,M,0.0,0000*40
$GPESA,093559.800,+0.000,+0.000,+0.000,+0.000,+0.000,+0.000*79
$GPRMC,093559.900,A,3101.8285285,N,12126.6106451,E,0.00,0.00,200323,0.0,E,A,V*79
$GPGGA,093559.900,3101.8285285,N,12126.6106451,E,1,35,1.0,15.829,M,11.106,M,0.0,0000*43
$GPESA,093559.900,+0.000,+0.000,+0.000,+0.000,+0.000,+0.000*78
$GPRMC,093600.000,A,3101.8286724,N,12126.6105118,E,0.00,0.00,200323,0.0,E,A,V*79
$GPGGA,093600.000,3101.8286724,N,12126.6105118,E,1,36,1.0,16.313,M,11.106,M,0.0,0000*41
$GPESA,093600.000,+0.000,+0.000,+0.000,+0.000,+0.000,+0.000*7E
$GPRMC,093600.100,A,3101.8286519,N,12126.6106713,E,0.00,0.00,200323,0.0,E,A,V*7A
$GPGGA,093600.100,3101.8286519,N,12126.6106713,E,1,37,1.0,15.542,M,11.106,M,0.0,0000*42
$GPESA,093600.100,+0.000,+0.000,+0.000,+0.000,+0.000,+0.000*7F
$GPRMC,093600.200,A,3101.8286538,N,12126.6106718,E,0.00,0.00,200323,0.0,E,A,V*71
$GPGGA,093600.200,3101.8286538,N,12126.6106718,E,1,37,1.0,15.539,M,11.106,M,0.0,0000*45
$GPESA,093600.200,+0.000,+0.000,+0.000,+0.000,+0.000,+0.000*7C
$GPRMC,093600.300,A,3101.8285155,N,12126.6108062,E,0.00,0.00,200323,0.0,E,A,V*78
$GPGGA,093600.300,3101.8285155,N,12126.6108062,E,1,35,1.0,15.128,M,11.106,M,0.0,0000*4A
$GPESA,093600.300,+0.000,+0.000,+0.000,+0.000,+0.000,+0.000*7D
$GPRMC,093600.400,A,3101.8285153,N,12126.6108042,E,0.00,0.00,200323,0.0,E,A,V*7B
$GPGGA,093600.400,3101.8285153,N,12126.6108042,E,1,35,1.0,15.129,M,11.106,M,0.0,0000*48
$GPESA,093600.400,+0.000,+0.000,+0.000,+0.000,+0.000,+0.000*7A
$GPRMC,093600.500,A,3101.8284998,N,12126.6107904,E,0.00,0.00,200323,0.0,E,A,V*70
$GPGGA,093600.500,3101.8284998,N,12126.6107904,E,1,36,1.0,15.156,M,11.106,M,0.0,0000*48
$GPESA,093600.500,+0.000,+0.000,+0.000,+0.000,+0.000,+0.000*7B
$GPRMC,093600.600,A,3101.8285327,N,12126.6107834,E,0.00,0.00,200323,0.0,E,A,V*7E
$GPGGA,093600.600,3101.8285327,N,12126.6107834,E,1,37,1.0,15.170,M,11.106,M,0.0,0000*43
$GPESA,093600.600,+0.000,+0.000,+0.000,+0.000,+0.000,+0.000*78
$GPRMC,093600.700,A,3101.8285319,N,12126.6107842,E,0.00,0.00,200323,0.0,E,A,V*73
$GPGGA,093600.700,3101.8285319,N,12126.6107842,E,1,37,1.0,15.174,M,11.106,M,0.0,0000*4A
$GPESA,093600.700,+0.000,+0.000,+0.000,+0.000,+0.000,+0.000*79
$GPRMC,093600.800,A,3101.8285292,N,12126.6107812,E,0.00,0.00,200323,0.0,E,A,V*7B
$GPGGA,093600.800,3101.8285292,N,12126.6107812,E,1,37,1.0,15.166,M,11.106,M,0.0,0000*41
$GPESA,093600.800,+0.000,+0.000,+0.000,+0.000,+0.000,+0.000*76
$GPRMC,093600.900,A,3101.8285271,N,12126.6107796,E,0.00,0.00,200323,0.0,E,A,V*74
$GPGGA,093600.900,3101.8285271,N,12126.6107796,E,1,37,1.0,15.169,M,11.106,M,0.0,0000*41
$GPESA,093600.900,+0.000,+0.000,+0.000,+0.000,+0.000,+0.000*77
$GPRMC,093601.000,A,3101.8285305,N,12126.6106433,E,0.00,0.00,200323,0.0,E,A,V*73
$GPGGA,093601.000,3101.8285305,N,12126.6106433,E,1,35,1.0,15.810,M,11.106,M,0.0,0000*43
$GPESA,093601.000,+0.000,+0.000,+0.000,+0.000,+0.000,+0.000*7F
$GPRMC,093601.100,A,3101.8285278,N,12126.6106443,E,0.00,0.00,200323,0.0,E,A,V*7E
$GPGGA,093601.100,3101.8285278,N,12126.6106443,E,1,35,1.0,15.800,M,11.106,M,0.0,0000*4F
$GPESA,093601.100,+0.000,+0.000,+0.000,+0.000,+0.000,+0.000*7E
$GPRMC,093601.200,A,3101.8284963,N,12126.6107849,E,0.00,0.00,200323,0.0,E,A,V*7A
$GPGGA,093601.200,3101.8284963,N,12126.6107849,E,1,36,1.0,15.113,M,11.106,M,0.0,0000*43
$GPESA,093601.200,+0.000,+0.000,+0.000,+0.000,+0.000,+0.000*7D
$GPRMC,093601.300,A,3101.8285545,N,12126.6106341,E,0.00,0.00,200323,0.0,E,A,V*70
$GPGGA,093601.300,3101.8285545,N,12126.6106341,E,1,36,1.0,15.827,M,11.106,M,0.0,0000*47
$GPESA,093601.300,+0.000,+0.000,+0.000,+0.000,+0.000,+0.000*7C
$GPRMC,093601.400,A,3101.8285265,N,12126.6107757,E,0.00,0.00,200323,0.0,E,A,V*70
$GPGGA,093601.400,3101.8285265,N,12126.6107757,E,1,38,1.0,15.132,M,11.106,M,0.0,0000*44
$GPESA,093601.400,+0.000,+0.000,+0.000,+0.000,+0.000,+0.000*7B
$GPRMC,093601.500,A,3101.8285518,N,12126.6106319,E,0.00,0.00,200323,0.0,E,A,V*73
$GPGGA,093601.500,3101.8285518,N,12126.6106319,E,1,37,1.0,15.826,M,11.106,M,0.0,0000*44
$GPESA,093601.500,+0.000,+0.000,+0.000,+0.000,+0.000,+0.000*7A
$GPRMC,093601.600,A,3101.8285247,N,12126.6106380,E,0.00,0.00,200323,0.0,E,A,V*7D
$GPGGA,093601.600,3101.8285247,N,12126.6106380,E,1,35,1.0,15.783,M,11.106,M,0.0,0000*48
$GPESA,093601.600,+0.000,+0.000,+0.000,+0.000,+0.000,+0.000*79
$GPRMC,093601.700,A,3101.8284914,N,12126.6107817,E,0.00,0.00,200323,0.0,E,A,V*74
$GPGGA,093601.700,3101.8284914,N,12126.6107817,E,1,36,1.0,15.114,M,11.106,M,0.0,0000*4A
$GPESA,093601.700,+0.000,+0.000,+0.000,+0.000,+0.000,+0.000*78
$GPRMC,093601.800,A,3101.8285210,N,12126.6106367,E,0.00,0.00,200323,0.0,E,A,V*78
$GPGGA,093601.800,3101.8285210,N,12126.6106367,E,1,36,1.0,15.777,M,11.106,M,0.0,0000*45
$GPESA,093601.800,+0.000,+0.000,+0.000,+0.000,+0.000,+0.000*77
$GPRMC,093601.900,A,3101.8284918,N,12126.6107789,E,0.00,0.00,200323,0.0,E,A,V*7E
$GPGGA,093601.900,3101.8284918,N,12126.6107789,E,1,36,1.0,15.100,M,11.106,M,0.0,0000*45
$GPESA,093601.900,+0.000,+0.000,+0.000,+0.000,+0.000,+0.000*76
$GPRMC,093602.000,A,3101.8284948,N,12126.6107815,E,0.00,0.00,200323,0.0,E,A,V*7B
$GPGGA,093602.000,3101.8284948,N,12126.6107815,E,1,36,1.0,15.102,M,11.106,M,0.0,0000*42
$GPESA,093602.000,+0.000,+0.000,+0.000,+0.000,+0.000,+0.000*7C
$GPRMC,093602.100,A,3101.8284921,N,12126.6107811,E,0.00,0.00,200323,0.0,E,A,V*71
$GPGGA,093602.100,3101.8284921,N,12126.6107811,E,1,37,1.0,15.107,M,11.106,M,0.0,0000*4C
$GPESA,093602.100,+0.000,+0.000,+0.000,+0.000,+0.000,+0.000*7D
$GPRMC,093602.200,A,3101.8286718,N,12126.6106590,E,0.00,0.00,200323,0.0,E,A,V*71
$GPGGA,093602.200,3101.8286718,N,12126.6106590,E,1,39,1.0,15.502,M,11.106,M,0.0,0000*43
$GPESA,093602.200,+0.000,+0.000,+0.000,+0.000,+0.000,+0.000*7E
$GPRMC,093602.300,A,3101.8286475,N,12126.6106636,E,0.00,0.00,200323,0.0,E,A,V*77
$GPGGA,093602.300,3101.8286475,N,12126.6106636,E,1,38,1.0,15.482,M,11.106,M,0.0,0000*4D
$GPESA,093602.300,+0.000,+0.000,+0.000,+0.000,+0.000,+0.000*7F
$GPRMC,093602.400,A,3101.8286952,N,12126.6104981,E,0.00,0.00,200323,0.0,E,A,V*79
$GPGGA,093602.400,3101.8286952,N,12126.6104981,E,1,37,1.0,16.268,M,11.106,M,0.0,0000*4D
$GPESA,093602.400,+0.000,+0.000,+0.000,+0.000,+0.000,+0.000*78
$GPRMC,093602.500,A,3101.8286984,N,12126.6105001,E,0.00,0.00,200323,0.0,E,A,V*73
$GPGGA,093602.500,3101.8286984,N,12126.6105001,E,1,37,1.0,16.265,M,11.106,M,0.0,0000*4A
$GPESA,093602.500,+0.000,+0.000,+0.000,+0.000,+0.000,+0.000*79
$GPRMC,093602.600,A,3101.8286967,N,12126.6105012,E,0.00,0.00,200323,0.0,E,A,V*7F
$GPGGA,093602.600,3101.8286967,N,12126.6105012,E,1,37,1.0,16.282,M,11.106,M,0.0,0000*4F
$GPESA,093602.600,+0.000,+0.000,+0.000,+0.000,+0.000,+0.000*7A
$GPRMC,093602.700,A,3101.8286721,N,12126.6106641,E,0.00,0.00,200323,0.0,E,A,V*71
$GPGGA,093602.700,3101.8286721,N,12126.6106641,E,1,39,1.0,15.505,M,11.106,M,0.0,0000*44
$GPESA,093602.700,+0.000,+0.000,+0.000,+0.000,+0.000,+0.000*7B
$GPRMC,093602.800,A,3101.8286732,N,12126.6106655,E,0.00,0.00,200323,0.0,E,A,V*79
$GPGGA,093602.800,3101.8286732,N,12126.6106655,E,1,38,1.0,15.507,M,11.106,M,0.0,0000*4F
$GPESA,093602.800,+0.000,+0.000,+0.000,+0.000,+0.000,+0.000*74
$GPRMC,093602.900,A,3101.8286709,N,12126.6106671,E,0.00,0.00,200323,0.0,E,A,V*76
$GPGGA,093602.900,3101.8286709,N,12126.6106671,E,1,38,1.0,15.502,M,11.106,M,0.0,0000*45
$GPESA,093602.900,+0.000,+0.000,+0.000,+0.000,+0.000,+0.000*75
$GPRMC,093603.000,A,3101.8285268,N,12126.6107818,E,0.00,0.00,200323,0.0,E,A,V*7F
$GPGGA,093603.000,3101.8285268,N,12126.6107818,E,1,38,1.0,15.112,M,11.106,M,0.0,0000*49
$GPESA,093603.000,+0.000,+0.000,+0.000,+0.000,+0.000,+0.000*7D
$GPRMC,093603.100,A,3101.8285283,N,12126.6107818,E,0.00,0.00,200323,0.0,E,A,V*7B
$GPGGA,093603.100,3101.8285283,N,12126.6107818,E,1,38,1.0,15.111,M,11.106,M,0.0,0000*4E
$GPESA,093603.100,+0.000,+0.000,+0.000,+0.000,+0.000,+0.000*7C
$GPRMC,093603.200,A,3101.8285278,N,12126.6107807,E,0.00,0.00,200323,0.0,E,A,V*72
$GPGGA,093603.200,3101.8285278,N,12126.6107807,E,1,38,1.0,15.107,M,11.106,M,0.0,0000*40
$GPESA,093603.200,+0.000,+0.000,+0.000,+0.000,+0.000,+0.000*7F
$GPRMC,093603.300,A,3101.8285282,N,12126.6107780,E,0.00,0.00,200323,0.0,E,A,V*76
$GPGGA,093603.300,3101.8285282,N,12126.6107780,E,1,37,1.0,15.107,M,11.106,M,0.0,0000*4B
$GPESA,093603.300,+0.000,+0.000,+0.000,+0.000,+0.000,+0.000*7E
$GPRMC,093603.400,A,3101.8285573,N,12126.6106289,E,0.00,0.00,200323,0.0,E,A,V*75
$GPGGA,093603.400,3101.8285573,N,12126.6106289,E,1,37,1.0,15.797,M,11.106,M,0.0,0000*47
$GPESA,093603.400,+0.000,+0.000,+0.000,+0.000,+0.000,+0.000*79
$GPRMC,093603.500,A,3101.8285250,N,12126.6107744,E,0.00,0.00,200323,0.0,E,A,V*77
$GPGGA,093603.500,3101.8285250,N,12126.6107744,E,1,37,1.0,15.118,M,11.106,M,0.0,0000*44
$GPESA,093603.500,+0.000,+0.000,+0.000,+0.000,+0.000,+0.000*78
$GPRMC,093603.600,A,3101.8285564,N,12126.6106285,E,0.00,0.00,200323,0.0,E,A,V*7D
$GPGGA,093603.600,3101.8285564,N,12126.6106285,E,1,37,1.0,15.811,M,11.106,M,0.0,0000*4E
$GPESA,093603.600,+0.000,+0.000,+0.000,+0.000,+0.000,+0.000*7B
$GPRMC,093603.700,A,3101.8285544,N,12126.6106283,E,0.00,0.00,200323,0.0,E,A,V*78
$GPGGA,093603.700,3101.8285544,N,12126.6106283,E,1,37,1.0,15.812,M,11.106,M,0.0,0000*48
$GPESA,093603.700,+0.000,+0.000,+0.000,+0.000,+0.000,+0.000*7A
$GPRMC,093603.800,A,3101.8285584,N,12126.6106290,E,0.00,0.00,200323,0.0,E,A,V*79
$GPGGA,093603.800,3101.8285584,N,12126.6106290,E,1,37,1.0,15.804,M,11.106,M,0.0,0000*4E
$GPESA,093603.800,+0.000,+0.000,+0.000,+0.000,+0.000,+0.000*75
$GPRMC,093603.900,A,3101.8286762,N,12126.6106613,E,0.00,0.00,200323,0.0,E,A,V*7E
$GPGGA,093603.900,3101.8286762,N,12126.6106613,E,1,38,1.0,15.487,M,11.106,M,0.0,0000*41
$GPESA,093603.900,+0.000,+0.000,+0.000,+0.000,+0.000,+0.000*74
$GPRMC,093604.000,A,3101.8285441,N,12126.6107917,E,0.00,0.00,200323,0.0,E,A,V*7B
$GPGGA,093604.000,3101.8285441,N,12126.6107917,E,1,37,1.0,15.081,M,11.106,M,0.0,0000*49
$GPESA,093604.000,+0.000,+0.000,+0.000,+0.000,+0.000,+0.000*7A
$GPRMC,093604.100,A,3101.8286771,N,12126.6106598,E,0.00,0.00,200323,0.0,E,A,V*73
$GPGGA,093604.100,3101.8286771,N,12126.6106598,E,1,38,1.0,15.488,M,11.106,M,0.0,0000*43
$GPESA,093604.100,+0.000,+0.000,+0.000,+0.000,+0.000,+0.000*7B
$GPRMC,093604.200,A,3101.8286772,N,12126.6106598,E,0.00,0.00,200323,0.0,E,A,V*73
$GPGGA,093604.200,3101.8286772,N,12126.6106598,E,1,38,1.0,15.486,M,11.106,M,0.0,0000*4D
$GPESA,093604.200,+0.000,+0.000,+0.000,+0.000,+0.000,+0.000*78
$GPRMC,093604.300,A,3101.8286910,N,12126.6106741,E,0.00,0.00,200323,0.0,E,A,V*7E
$GPGGA,093604.300,3101.8286910,N,12126.6106741,E,1,38,1.0,15.454,M,11.106,M,0.0,0000*4F
$GPESA,093604.300,+0.000,+0.000,+0.000,+0.000,+0.000,+0.000*79
$GPRMC,093604.400,A,3101.8285289,N,12126.6107661,E,0.00,0.00,200323,0.0,E,A,V*73
$GPGGA,093604.400,3101.8285289,N,12126.6107661,E,1,37,1.0,15.102,M,11.106,M,0.0,0000*4B
$GPESA,093604.400,+0.000,+0.000,+0.000,+0.000,+0.000,+0.000*7E
$GPRMC,093604.500,A,3101.8286702,N,12126.6106493,E,0.00,0.00,200323,0.0,E,A,V*79
$GPGGA,093604.500,3101.8286702,N,12126.6106493,E,1,38,1.0,15.487,M,11.106,M,0.0,0000*46
$GPESA,093604.500,+0.000,+0.000,+0.000,+0.000,+0.000,+0.000*7F
$GPRMC,093604.600,A,3101.8286716,N,12126.6106489,E,0.00,0.00,200323,0.0,E,A,V*74
$GPGGA,093604.600,3101.8286716,N,12126.6106489,E,1,38,1.0,15.485,M,11.106,M,0.0,0000*49
$GPESA,093604.600,+0.000,+0.000,+0.000,+0.000,+0.000,+0.000*7C
$GPRMC,093604.700,A,3101.8286736,N,12126.6106552,E,0.00,0.00,200323,0.0,E,A,V*70
$GPGGA,093604.700,3101.8286736,N,12126.6106552,E,1,39,1.0,15.484,M,11.106,M,0.0,0000*4D
$GPESA,093604.700,+0.000,+0.000,+0.000,+0.000,+0.000,+0.000*7D
$GPRMC,093604.800,A,3101.8286734,N,12126.6106525,E,0.00,0.00,200323,0.0,E,A,V*7D
$GPGGA,093604.800,3101.8286734,N,12126.6106525,E,1,38,1.0,15.481,M,11.106,M,0.0,0000*44
$GPESA,093604.800,+0.000,+0.000,+0.000,+0.000,+0.000,+0.000*72
$GPRMC,093604.900,A,3101.8285268,N,12126.6107637,E,0.00,0.00,200323,0.0,E,A,V*72
$GPGGA,093604.900,3101.8285268,N,12126.6107637,E,1,37,1.0,15.111,M,11.106,M,0.0,0000*48
$GPESA,093604.900,+0.000,+0.000,+0.000,+0.000,+0.000,+0.000*73
$GPRMC,093605.000,A,3101.8285444,N,12126.6107854,E,0.00,0.00,200323,0.0,E,A,V*79
$GPGGA,093605.000,3101.8285444,N,12126.6107854,E,1,36,1.0,15.071,M,11.106,M,0.0,0000*45
$GPESA,093605.000,+0.000,+0.000,+0.000,+0.000,+0.000,+0.000*7B
$GPRMC,093605.100,A,3101.8286912,N,12126.6106706,E,0.00,0.00,200323,0.0,E,A,V*7C
$GPGGA,093605.100,3101.8286912,N,12126.6106706,E,1,38,1.0,15.442,M,11.106,M,0.0,0000*4A
$GPESA,093605.100,+0.000,+0.000,+0.000,+0.000,+0.000,+0.000*7A
$GPRMC,093605.200,A,3101.8286964,N,12126.6104848,E,0.00,0.00,200323,0.0,E,A,V*79
$GPGGA,093605.200,3101.8286964,N,12126.6104848,E,1,38,1.0,16.275,M,11.106,M,0.0,0000*4E
$GPESA,093605.200,+0.000,+0.000,+0.000,+0.000,+0.000,+0.000*79
$GPRMC,093605.300,A,3101.8286931,N,12126.6104822,E,0.00,0.00,200323,0.0,E,A,V*74
$GPGGA,093605.300,3101.8286931,N,12126.6104822,E,1,38,1.0,16.287,M,11.106,M,0.0,0000*4E
$GPESA,093605.300,+0.000,+0.000,+0.000,+0.000,+0.000,+0.000*78
$GPRMC,093605.400,A,3101.8287094,N,12126.6105041,E,0.00,0.00,200323,0.0,E,A,V*78
$GPGGA,093605.400,3101.8287094,N,12126.6105041,E,1,36,1.0,16.241,M,11.106,M,0.0,0000*46
$GPESA,093605.400,+0.000,+0.000,+0.000,+0.000,+0.000,+0.000*7F
$GPRMC,093605.500,A,3101.8287088,N,12126.6105069,E,0.00,0.00,200323,0.0,E,A,V*7E
$GPGGA,093605.500,3101.8287088,N,12126.6105069,E,1,36,1.0,16.248,M,11.106,M,0.0,0000*49
$GPESA,093605.500,+0.000,+0.000,+0.000,+0.000,+0.000,+0.000*7E
$GPRMC,093605.600,A,3101.8286713,N,12126.6106501,E,0.00,0.00,200323,0.0,E,A,V*71
$GPGGA,093605.600,3101.8286713,N,12126.6106501,E,1,38,1.0,15.497,M,11.106,M,0.0,0000*4F
$GPESA,093605.600,+0.000,+0.000,+0.000,+0.000,+0.000,+0.000*7D
$GPRMC,093605.700,A,3101.8285310,N,12126.6107669,E,0.00,0.00,200323,0.0,E,A,V*78
$GPGGA,093605.700,3101.8285310,N,12126.6107669,E,1,37,1.0,15.118,M,11.106,M,0.0,0000*4B
$GPESA,093605.700,+0.000,+0.000,+0.000,+0.000,+0.000,+0.000*7C
$GPRMC,093605.800,A,3101.8285500,N,12126.6107907,E,0.00,0.00,200323,0.0,E,A,V*77
$GPGGA,093605.800,3101.8285500,N,12126.6107907,E,1,36,1.0,15.078,M,11.106,M,0.0,0000*42
$GPESA,093605.800,+0.000,+0.000,+0.000,+0.000,+0.000,+0.000*73
$GPRMC,093605.900,A,3101.8285782,N,12126.6106383,E,0.00,0.00,200323,0.0,E,A,V*79
$GPGGA,093605.900,3101.8285782,N,12126.6106383,E,1,35,1.0,15.796,M,11.106,M,0.0,0000*48
$GPESA,093605.900,+0.000,+0.000,+0.000,+0.000,+0.000,+0.000*72
$GPRMC,093606.000,A,3101.8286921,N,12126.6104824,E,0.00,0.00,200323,0.0,E,A,V*73
$GPGGA,093606.000,3101.8286921,N,12126.6104824,E,1,38,1.0,16.305,M,11.106,M,0.0,0000*42
$GPESA,093606.000,+0.000,+0.000,+0.000,+0.000,+0.000,+0.000*78
$GPRMC,093606.100,A,3101.8285539,N,12126.6106078,E,0.00,0.00,200323,0.0,E,A,V*77
$GPGGA,093606.100,3101.8285539,N,12126.6106078,E,1,36,1.0,15.851,M,11.106,M,0.0,0000*41
$GPESA,093606.100,+0.000,+0.000,+0.000,+0.000,+0.000,+0.000*79
$GPRMC,093606.200,A,3101.8285551,N,12126.6106051,E,0.00,0.00,200323,0.0,E,A,V*71
$GPGGA,093606.200,3101.8285551,N,12126.6106051,E,1,36,1.0,15.851,M,11.106,M,0.0,0000*47
$GPESA,093606.200,+0.000,+0.000,+0.000,+0.000,+0.000,+0.000*7A
$GPRMC,093606.300,A,3101.8287027,N,12126.6105034,E,0.00,0.00,200323,0.0,E,A,V*76
$GPGGA,093606.300,3101.8287027,N,12126.6105034,E,1,36,1.0,16.247,M,11.106,M,0.0,0000*4E
$GPESA,093606.300,+0.000,+0.000,+0.000,+0.000,+0.000,+0.000*7B
$GPRMC,093606.400,A,3101.8287026,N,12126.6105011,E,0.00,0.00,200323,0.0,E,A,V*77
$GPGGA,093606.400,3101.8287026,N,12126.6105011,E,1,36,1.0,16.239,M,11.106,M,0.0,0000*46
$GPESA,093606.400,+0.000,+0.000,+0.000,+0.000,+0.000,+0.000*7C
$GPRMC,093606.500,A,3101.8287020,N,12126.6105014,E,0.00,0.00,200323,0.0,E,A,V*75
$GPGGA,093606.500,3101.8287020,N,12126.6105014,E,1,36,1.0,16.246,M,11.106,M,0.0,0000*4C
$GPESA,093606.500,+0.000,+0.000,+0.000,+0.000,+0.000,+0.000*7D
$GPRMC,093606.600,A,3101.8286822,N,12126.6106718,E,0.00,0.00,200323,0.0,E,A,V*75
$GPGGA,093606.600,3101.8286822,N,12126.6106718,E,1,37,1.0,15.428,M,11.106,M,0.0,0000*40
$GPESA,093606.600,+0.000,+0.000,+0.000,+0.000,+0.000,+0.000*7E
$GPRMC,093606.700,A,3101.8286801,N,12126.6104759,E,0.00,0.00,200323,0.0,E,A,V*72
$GPGGA,093606.700,3101.8286801,N,12126.6104759,E,1,37,1.0,16.300,M,11.106,M,0.0,0000*49
$GPESA,093606.700,+0.000,+0.000,+0.000,+0.000,+0.000,+0.000*7F
$GPRMC,093606.800,A,3101.8286839,N,12126.6104762,E,0.00,0.00,200323,0.0,E,A,V*7E
$GPGGA,093606.800,3101.8286839,N,12126.6104762,E,1,37,1.0,16.293,M,11.106,M,0.0,0000*4E
$GPESA,093606.800,+0.000,+0.000,+0.000,+0.000,+0.000,+0.000*70
$GPRMC,093606.900,A,3101.8287053,N,12126.6105027,E,0.00,0.00,200323,0.0,E,A,V*7D
$GPGGA,093606.900,3101.8287053,N,12126.6105027,E,1,36,1.0,16.229,M,11.106,M,0.0,0000*4D
$GPESA,093606.900,+0.000,+0.000,+0.000,+0.000,+0.000,+0.000*71
$GPRMC,093607.000,A,3101.8287069,N,12126.6105019,E,0.00,0.00,200323,0.0,E,A,V*71
$GPGGA,093607.000,3101.8287069,N,12126.6105019,E,1,36,1.0,16.221,M,11.106,M,0.0,0000*49
$GPESA,093607.000,+0.000,+0.000,+0.000,+0.000,+0.000,+0.000*79
$GPRMC,093607.100,A,3101.8287035,N,12126.6105034,E,0.00,0.00,200323,0.0,E,A,V*76
$GPGGA,093607.100,3101.8287035,N,12126.6105034,E,1,36,1.0,16.231,M,11.106,M,0.0,0000*4F
$GPESA,093607.100,+0.000,+0.000,+0.000,+0.000,+0.000,+0.000*78
$GPRMC,093607.200,A,3101.8286844,N,12126.6106724,E,0.00,0.00,200323,0.0,E,A,V*7F
$GPGGA,093607.200,3101.8286844,N,12126.6106724,E,1,37,1.0,15.414,M,11.106,M,0.0,0000*45
$GPESA,093607.200,+0.000,+0.000,+0.000,+0.000,+0.000,+0.000*7B
$GPRMC,093607.300,A,3101.8286827,N,12126.6106734,E,0.00,0.00,200323,0.0,E,A,V*7A
$GPGGA,093607.300,3101.8286827,N,12126.6106734,E,1,38,1.0,15.415,M,11.106,M,0.0,0000*4E
$GPESA,093607.300,+0.000,+0.000,+0.000,+0.000,+0.000,+0.000*7A
$GPRMC,093607.400,A,3101.8286841,N,12126.6106744,E,0.00,0.00,200323,0.0,E,A,V*7A
$GPGGA,093607.400,3101.8286841,N,12126.6106744,E,1,37,1.0,15.407,M,11.106,M,0.0,0000*42
$GPESA,093607.400,+0.000,+0.000,+0.000,+0.000,+0.000,+0.000*7D
$GPRMC,093607.500,A,3101.8285668,N,12126.6106355,E,0.00,0.00,200323,0.0,E,A,V*79
$GPGGA,093607.500,3101.8285668,N,12126.6106355,E,1,35,1.0,15.766,M,11.106,M,0.0,0000*47
$GPESA,093607.500,+0.000,+0.000,+0.000,+0.000,+0.000,+0.000*7C
$GPRMC,093607.600,A,3101.8285368,N,12126.6107887,E,0.00,0.00,200323,0.0,E,A,V*7A
$GPGGA,093607.600,3101.8285368,N,12126.6107887,E,1,36,1.0,15.039,M,11.106,M,0.0,0000*4A
$GPESA,093607.600,+0.000,+0.000,+0.000,+0.000,+0.000,+0.000*7F
$GPRMC,093607.700,A,3101.8285110,N,12126.6107598,E,0.00,0.00,200323,0.0,E,A,V*75
$GPGGA,093607.700,3101.8285110,N,12126.6107598,E,1,37,1.0,15.096,M,11.106,M,0.0,0000*41
$GPESA,093607.700,+0.000,+0.000,+0.000,+0.000,+0.000,+0.000*7E
$GPRMC,093607.800,A,3101.8285139,N,12126.6107601,E,0.00,0.00,200323,0.0,E,A,V*72
$GPGGA,093607.800,3101.8285139,N,12126.6107601,E,1,37,1.0,15.081,M,11.106,M,0.0,0000*40
$GPESA,093607.800,+0.000,+0.000,+0.000,+0.000,+0.000,+0.000*71
$GPRMC,093607.900,A,3101.8287025,N,12126.6105076,E,0.00,0.00,200323,0.0,E,A,V*79
$GPGGA,093607.900,3101.8287025,N,12126.6105076,E,1,36,1.0,16.216,M,11.106,M,0.0,0000*45
$GPESA,093607.900,+0.000,+0.000,+0.000,+0.000,+0.000,+0.000*70
$GPRMC,093608.000,A,3101.8287059,N,12126.6105049,E,0.00,0.00,200323,0.0,E,A,V*78
$GPGGA,093608.000,3101.8287059,N,12126.6105049,E,1,37,1.0,16.208,M,11.106,M,0.0,0000*4A
$GPESA,093608.000,+0.000,+0.000,+0.000,+0.000,+0.000,+0.000*76
$GPRMC,093608.100,A,3101.8285699,N,12126.6106353,E,0.00,0.00,200323,0.0,E,A,V*7A
$GPGGA,093608.100,3101.8285699,N,12126.6106353,E,1,36,1.0,15.749,M,11.106,M,0.0,0000*4A
$GPESA,093608.100,+0.000,+0.000,+0.000,+0.000,+0.000,+0.000*77
$GPRMC,093608.200,A,3101.8287046,N,12126.6105071,E,0.00,0.00,200323,0.0,E,A,V*7F
$GPGGA,093608.200,3101.8287046,N,12126.6105071,E,1,37,1.0,16.206,M,11.106,M,0.0,0000*43
$GPESA,093608.200,+0.000,+0.000,+0.000,+0.000,+0.000,+0.000*74
$GPRMC,093608.300,A,3101.8286818,N,12126.6106772,E,0.00,0.00,200323,0.0,E,A,V*7B
$GPGGA,093608.300,3101.8286818,N,12126.6106772,E,1,37,1.0,15.391,M,11.106,M,0.0,0000*4B
$GPESA,093608.300,+0.000,+0.000,+0.000,+0.000,+0.000,+0.000*75
$GPRMC,093608.400,A,3101.8286986,N,12126.6105060,E,0.00,0.00,200323,0.0,E,A,V*7D
$GPGGA,093608.400,3101.8286986,N,12126.6105060,E,1,37,1.0,16.208,M,11.106,M,0.0,0000*4F
$GPESA,093608.400,+0.000,+0.000,+0.000,+0.000,+0.000,+0.000*72
$GPRMC,093608.500,A,3101.8286974,N,12126.6105068,E,0.00,0.00,200323,0.0,E,A,V*79
$GPGGA,093608.500,3101.8286974,N,12126.6105068,E,1,37,1.0,16.216,M,11.106,M,0.0,0000*44
$GPESA,093608.500,+0.000,+0.000,+0.000,+0.000,+0.000,+0.000*73
$GPRMC,093608.600,A,3101.8285649,N,12126.6106377,E,0.00,0.00,200323,0.0,E,A,V*76
$GPGGA,093608.600,3101.8285649,N,12126.6106377,E,1,35,1.0,15.746,M,11.106,M,0.0,0000*4A
$GPESA,093608.600,+0.000,+0.000,+0.000,+0.000,+0.000,+0.000*70
$GPRMC,093608.700,A,3101.8285629,N,12126.6106351,E,0.00,0.00,200323,0.0,E,A,V*75
$GPGGA,093608.700,3101.8285629,N,12126.6106351,E,1,35,1.0,15.758,M,11.106,M,0.0,0000*46
$GPESA,093608.700,+0.000,+0.000,+0.000,+0.000,+0.000,+0.000*71
$GPRMC,093608.800,A,3101.8286965,N,12126.6105026,E,0.00,0.00,200323,0.0,E,A,V*7E
$GPGGA,093608.800,3101.8286965,N,12126.6105026,E,1,36,1.0,16.219,M,11.106,M,0.0,0000*4D
$GPESA,093608.800,+0.000,+0.000,+0.000,+0.000,+0.000,+0.000*7E
$GPRMC,093608.900,A,3101.8285572,N,12126.6106311,E,0.00,0.00,200323,0.0,E,A,V*72
$GPGGA,093608.900,3101.8285572,N,12126.6106311,E,1,35,1.0,15.762,M,11.106,M,0.0,0000*48
$GPESA,093608.900,+0.000,+0.000,+0.000,+0.000,+0.000,+0.000*7F
$GPRMC,093609.000,A,3101.8286931,N,12126.6105007,E,0.00,0.00,200323,0.0,E,A,V*75
$GPGGA,093609.000,3101.8286931,N,12126.6105007,E,1,36,1.0,16.230,M,11.106,M,0.0,0000*4D
$GPESA,093609.000,+0.000,+0.000,+0.000,+0.000,+0.000,+0.000*77
$GPRMC,093609.100,A,3101.8286906,N,12126.6105036,E,0.00,0.00,200323,0.0,E,A,V*72
$GPGGA,093609.100,3101.8286906,N,12126.6105036,E,1,36,1.0,16.230,M,11.106,M,0.0,0000*4A
$GPESA,093609.100,+0.000,+0.000,+0.000,+0.000,+0.000,+0.000*76
$GPRMC,093609.200,A,3101.8286763,N,12126.6104782,E,0.00,0.00,200323,0.0,E,A,V*75
$GPGGA,093609.200,3101.8286763,N,12126.6104782,E,1,38,1.0,16.284,M,11.106,M,0.0,0000*4C
$GPESA,093609.200,+0.000,+0.000,+0.000,+0.000,+0.000,+0.000*75
$GPRMC,093609.300,A,3101.8286961,N,12126.6105050,E,0.00,0.00,200323,0.0,E,A,V*71
$GPGGA,093609.300,3101.8286961,N,12126.6105050,E,1,37,1.0,16.228,M,11.106,M,0.0,0000*41
$GPESA,093609.300,+0.000,+0.000,+0.000,+0.000,+0.000,+0.000*74
$GPRMC,093609.400,A,3101.8286797,N,12126.6104780,E,0.00,0.00,200323,0.0,E,A,V*7A
$GPGGA,093609.400,3101.8286797,N,12126.6104780,E,1,37,1.0,16.281,M,11.106,M,0.0,0000*49
$GPESA,093609.400,+0.000,+0.000,+0.000,+0.000,+0.000,+0.000*73
$GPRMC,093609.500,A,3101.8286965,N,12126.6105033,E,0.00,0.00,200323,0.0,E,A,V*76
$GPGGA,093609.500,3101.8286965,N,12126.6105033,E,1,37,1.0,16.228,M,11.106,M,0.0,0000*46
$GPESA,093609.500,+0.000,+0.000,+0.000,+0.000,+0.000,+0.000*72
$GPRMC,093609.600,A,3101.8286779,N,12126.6104761,E,0.00,0.00,200323,0.0,E,A,V*77
$GPGGA,093609.600,3101.8286779,N,12126.6104761,E,1,38,1.0,16.281,M,11.106,M,0.0,0000*4B
$GPESA,093609.600,+0.000,+0.000,+0.000,+0.000,+0.000,+0.000*71
$GPRMC,093609.700,A,3101.8286966,N,12126.6105008,E,0.00,0.00,200323,0.0,E,A,V*7F
$GPGGA,093609.700,3101.8286966,N,12126.6105008,E,1,36,1.0,16.218,M,11.106,M,0.0,0000*4D
$GPESA,093609.700,+0.000,+0.000,+0.000,+0.000,+0.000,+0.000*70
$GPRMC,093609.800,A,3101.8286950,N,12126.6104987,E,0.00,0.00,200323,0.0,E,A,V*7A
$GPGGA,093609.800,3101.8286950,N,12126.6104987,E,1,36,1.0,16.217,M,11.106,M,0.0,0000*47
$GPESA,093609.800,+0.000,+0.000,+0.000,+0.000,+0.000,+0.000*7F
$GPRMC,093609.900,A,3101.8285598,N,12126.6106318,E,0.00,0.00,200323,0.0,E,A,V*7E
$GPGGA,093609.900,3101.8285598,N,12126.6106318,E,1,35,1.0,15.738,M,11.106,M,0.0,0000*4B
$GPESA,093609.900,+0.000,+0.000,+0.000,+0.000,+0.000,+0.000*7E
$GPRMC,093610.000,A,3101.8285579,N,12126.6106293,E,0.00,0.00,200323,0.0,E,A,V*72
$GPGGA,093610.000,3101.8285579,N,12126.6106293,E,1,36,1.0,15.737,M,11.106,M,0.0,0000*4B
$GPESA,093610.000,+0.000,+0.000,+0.000,+0.000,+0.000,+0.000*7F
$GPRMC,093610.100,A,3101.8285396,N,12126.6106033,E,0.00,0.00,200323,0.0,E,A,V*7C
$GPGGA,093610.100,3101.8285396,N,12126.6106033,E,1,36,1.0,15.788,M,11.106,M,0.0,0000*41
$GPESA,093610.100,+0.000,+0.000,+0.000,+0.000,+0.000,+0.000*7E
$GPRMC,093610.200,A,3101.8286625,N,12126.6106422,E,0.00,0.00,200323,0.0,E,A,V*75
$GPGGA,093610.200,3101.8286625,N,12126.6106422,E,1,38,1.0,15.421,M,11.106,M,0.0,0000*46
$GPESA,093610.200,+0.000,+0.000,+0.000,+0.000,+0.000,+0.000*7D
$GPRMC,093610.300,A,3101.8285241,N,12126.6107539,E,0.00,0.00,200323,0.0,E,A,V*7B
$GPGGA,093610.300,3101.8285241,N,12126.6107539,E,1,38,1.0,15.033,M,11.106,M,0.0,0000*4F
$GPESA,093610.300,+0.000,+0.000,+0.000,+0.000,+0.000,+0.000*7C
$GPRMC,093610.400,A,3101.8286819,N,12126.6106339,E,0.00,0.00,200323,0.0,E,A,V*7F
$GPGGA,093610.400,3101.8286819,N,12126.6106339,E,1,38,1.0,15.403,M,11.106,M,0.0,0000*4C
$GPESA,093610.400,+0.000,+0.000,+0.000,+0.000,+0.000,+0.000*7B
$GPRMC,093610.500,A,3101.8289114,N,12126.6103071,E,0.00,0.00,200323,0.0,E,A,V*7F
$GPGGA,093610.500,3101.8289114,N,12126.6103071,E,1,39,1.0,13.875,M,11.106,M,0.0,0000*46
$GPESA,093610.500,+0.000,+0.000,+0.000,+0.000,+0.000,+0.000*7A
$GPRMC,093610.600,A,3101.8287170,N,12126.6106127,E,0.00,0.00,200323,0.0,E,A,V*77
$GPGGA,093610.600,3101.8287170,N,12126.6106127,E,1,38,1.0,15.369,M,11.106,M,0.0,0000*4F
$GPESA,093610.600,+0.000,+0.000,+0.000,+0.000,+0.000,+0.000*79
$GPRMC,093610.700,A,3101.8289771,N,12126.6103086,E,0.00,0.00,200323,0.0,E,A,V*70
$GPGGA,093610.700,3101.8289771,N,12126.6103086,E,1,37,1.0,13.806,M,11.106,M,0.0,0000*43
$GPESA,093610.700,+0.000,+0.000,+0.000,+0.000,+0.000,+0.000*78
$GPRMC,093610.800,A,3101.8288052,N,12126.6104449,E,0.00,0.00,200323,0.0,E,A,V*78
$GPGGA,093610.800,3101.8288052,N,12126.6104449,E,1,37,1.0,16.151,M,11.106,M,0.0,0000*45
$GPESA,093610.800,+0.000,+0.000,+0.000,+0.000,+0.000,+0.000*77
$GPRMC,093610.900,A,3101.8290325,N,12126.6102812,E,0.00,0.00,200323,0.0,E,A,V*77
$GPGGA,093610.900,3101.8290325,N,12126.6102812,E,1,38,1.0,13.814,M,11.106,M,0.0,0000*48
$GPESA,093610.900,+0.000,+0.000,+0.000,+0.000,+0.000,+0.000*76
$GPRMC,093611.000,A,3101.8288770,N,12126.6104066,E,0.00,0.00,200323,0.0,E,A,V*7F
$GPGGA,093611.000,3101.8288770,N,12126.6104066,E,1,37,1.0,16.132,M,11.106,M,0.0,0000*47
$GPESA,093611.000,+0.000,+0.000,+0.000,+0.000,+0.000,+0.000*7E
$GPRMC,093611.100,A,3101.8289059,N,12126.6103580,E,0.00,0.00,200323,0.0,E,A,V*79
$GPGGA,093611.100,3101.8289059,N,12126.6103580,E,1,38,1.0,16.173,M,11.106,M,0.0,0000*4B
$GPESA,093611.100,+0.000,+0.000,+0.000,+0.000,+0.000,+0.000*7F
$GPRMC,093611.200,A,3101.8289515,N,12126.6103832,E,0.00,0.00,200323,0.0,E,A,V*73
$GPGGA,093611.200,3101.8289515,N,12126.6103832,E,1,37,1.0,16.423,M,11.106,M,0.0,0000*4E
$GPESA,093611.200,+0.000,+0.000,+0.000,+0.000,+0.000,+0.000*7C
$GPRMC,093611.300,A,3101.8288875,N,12126.6104578,E,0.00,0.00,200323,0.0,E,A,V*7C
$GPGGA,093611.300,3101.8288875,N,12126.6104578,E,1,36,1.0,15.880,M,11.106,M,0.0,0000*46
$GPESA,093611.300,+0.000,+0.000,+0.000,+0.000,+0.000,+0.000*7D
$GPRMC,093611.400,A,3101.8289592,N,12126.6104178,E,0.00,0.00,200323,0.0,E,A,V*7A
$GPGGA,093611.400,3101.8289592,N,12126.6104178,E,1,36,1.0,15.886,M,11.106,M,0.0,0000*46
$GPESA,093611.400,+0.000,+0.000,+0.000,+0.000,+0.000,+0.000*7A
$GPRMC,093611.500,A,3101.8291962,N,12126.6102352,E,0.00,0.00,200323,0.0,E,A,V*7D
$GPGGA,093611.500,3101.8291962,N,12126.6102352,E,1,37,1.0,16.109,M,11.106,M,0.0,0000*4D
$GPESA,093611.500,+0.000,+0.000,+0.000,+0.000,+0.000,+0.000*7B
$GPRMC,093611.600,A,3101.8292827,N,12126.6101900,E,0.00,0.00,200323,0.0,E,A,V*73
$GPGGA,093611.600,3101.8292827,N,12126.6101900,E,1,37,1.0,16.105,M,11.106,M,0.0,0000*4F
$GPESA,093611.600,+0.000,+0.000,+0.000,+0.000,+0.000,+0.000*78
$GPRMC,093611.700,A,3101.8293780,N,12126.6101391,E,0.00,0.00,200323,0.0,E,A,V*73
$GPGGA,093611.700,3101.8293780,N,12126.6101391,E,1,37,1.0,16.105,M,11.106,M,0.0,0000*4F
$GPESA,093611.700,+0.000,+0.000,+0.000,+0.000,+0.000,+0.000*79
$GPRMC,093611.800,A,3101.8294827,N,12126.6100883,E,0.00,0.00,200323,0.0,E,A,V*70
$GPGGA,093611.800,3101.8294827,N,12126.6100883,E,1,37,1.0,16.093,M,11.106,M,0.0,0000*42
$GPESA,093611.800,+0.000,+0.000,+0.000,+0.000,+0.000,+0.000*76
$GPRMC,093611.900,A,3101.8295918,N,12126.6100296,E,0.00,0.00,200323,0.0,E,A,V*73
$GPGGA,093611.900,3101.8295918,N,12126.6100296,E,1,37,1.0,16.084,M,11.106,M,0.0,0000*47
$GPESA,093611.900,+0.000,+0.000,+0.000,+0.000,+0.000,+0.000*77
$GPRMC,093612.000,A,3101.8296905,N,12126.6099438,E,0.00,0.00,200323,0.0,E,A,V*75
$GPGGA,093612.000,3101.8296905,N,12126.6099438,E,1,38,1.0,16.135,M,11.106,M,0.0,0000*45
$GPESA,093612.000,+0.000,+0.000,+0.000,+0.000,+0.000,+0.000*7D
$GPRMC,093612.100,A,3101.8300093,N,12126.6097350,E,0.00,0.00,200323,0.0,E,A,V*7B
$GPGGA,093612.100,3101.8300093,N,12126.6097350,E,1,39,1.0,13.778,M,11.106,M,0.0,0000*40
$GPESA,093612.100,+0.000,+0.000,+0.000,+0.000,+0.000,+0.000*7C
$GPRMC,093612.200,A,3101.8299396,N,12126.6098118,E,0.00,0.00,200323,0.0,E,A,V*7E
$GPGGA,093612.200,3101.8299396,N,12126.6098118,E,1,38,1.0,16.118,M,11.106,M,0.0,0000*41
$GPESA,093612.200,+0.000,+0.000,+0.000,+0.000,+0.000,+0.000*7F
$GPRMC,093612.300,A,3101.8302693,N,12126.6095987,E,0.00,0.00,200323,0.0,E,A,V*7F
$GPGGA,093612.300,3101.8302693,N,12126.6095987,E,1,39,1.0,13.758,M,11.106,M,0.0,0000*46
$GPESA,093612.300,+0.000,+0.000,+0.000,+0.000,+0.000,+0.000*7E
$GPRMC,093612.400,A,3101.8302064,N,12126.6097275,E,0.00,0.00,200323,0.0,E,A,V*72
$GPGGA,093612.400,3101.8302064,N,12126.6097275,E,1,37,1.0,16.365,M,11.106,M,0.0,0000*4A
$GPESA,093612.400,+0.000,+0.000,+0.000,+0.000,+0.000,+0.000*79
$GPRMC,093612.500,A,3101.8305761,N,12126.6094739,E,0.00,0.00,200323,0.0,E,A,V*78
$GPGGA,093612.500,3101.8305761,N,12126.6094739,E,1,38,1.0,13.714,M,11.106,M,0.0,0000*48
$GPESA,093612.500,+0.000,+0.000,+0.000,+0.000,+0.000,+0.000*78
$GPRMC,093612.600,A,3101.8307306,N,12126.6093951,E,0.00,0.00,200323,0.0,E,A,V*7B
$GPGGA,093612.600,3101.8307306,N,12126.6093951,E,1,38,1.0,13.703,M,11.106,M,0.0,0000*4D
$GPESA,093612.600,+0.000,+0.000,+0.000,+0.000,+0.000,+0.000*7B
$GPRMC,093612.700,A,3101.8308857,N,12126.6093122,E,0.00,0.00,200323,0.0,E,A,V*76
$GPGGA,093612.700,3101.8308857,N,12126.6093122,E,1,38,1.0,13.707,M,11.106,M,0.0,0000*44
$GPESA,093612.700,+0.000,+0.000,+0.000,+0.000,+0.000,+0.000*7A
$GPRMC,093612.800,A,3101.8310487,N,12126.6092302,E,0.00,0.00,200323,0.0,E,A,V*70
$GPGGA,093612.800,3101.8310487,N,12126.6092302,E,1,38,1.0,13.687,M,11.106,M,0.0,0000*4B
$GPESA,093612.800,+0.000,+0.000,+0.000,+0.000,+0.000,+0.000*75
$GPRMC,093612.900,A,3101.8312130,N,12126.6091455,E,0.00,0.00,200323,0.0,E,A,V*7C
$GPGGA,093612.900,3101.8312130,N,12126.6091455,E,1,38,1.0,13.679,M,11.106,M,0.0,0000*46
$GPESA,093612.900,+0.000,+0.000,+0.000,+0.000,+0.000,+0.000*74
$GPRMC,093613.000,A,3101.8313875,N,12126.6090573,E,0.00,0.00,200323,0.0,E,A,V*79
$GPGGA,093613.000,3101.8313875,N,12126.6090573,E,1,38,1.0,13.668,M,11.106,M,0.0,0000*43
$GPESA,093613.000,+0.000,+0.000,+0.000,+0.000,+0.000,+0.000*7C
$GPRMC,093613.100,A,3101.8315435,N,12126.6089427,E,0.00,0.00,200323,0.0,E,A,V*7E
$GPGGA,093613.100,3101.8315435,N,12126.6089427,E,1,39,1.0,13.693,M,11.106,M,0.0,0000*41
$GPESA,093613.100,+0.000,+0.000,+0.000,+0.000,+0.000,+0.000*7D
$GPRMC,093613.200,A,3101.8310203,N,12126.6094771,E,0.00,0.00,200323,0.0,E,A,V*77
$GPGGA,093613.200,3101.8310203,N,12126.6094771,E,1,37,1.0,13.199,M,11.106,M,0.0,0000*4B
$GPESA,093613.200,+0.000,+0.000,+0.000,+0.000,+0.000,+0.000*7E
$GPRMC,093613.300,A,3101.8311883,N,12126.6093529,E,0.00,0.00,200323,0.0,E,A,V*7D
$GPGGA,093613.300,3101.8311883,N,12126.6093529,E,1,38,1.0,13.245,M,11.106,M,0.0,0000*4C
$GPESA,093613.300,+0.000,+0.000,+0.000,+0.000,+0.000,+0.000*7F
$GPRMC,093613.400,A,3101.8313780,N,12126.6092543,E,0.00,0.00,200323,0.0,E,A,V*79
$GPGGA,093613.400,3101.8313780,N,12126.6092543,E,1,38,1.0,13.236,M,11.106,M,0.0,0000*4C
$GPESA,093613.400,+0.000,+0.000,+0.000,+0.000,+0.000,+0.000*78
$GPRMC,093613.500,A,3101.8315649,N,12126.6091562,E,0.00,0.00,200323,0.0,E,A,V*7A
$GPGGA,093613.500,3101.8315649,N,12126.6091562,E,1,38,1.0,13.243,M,11.106,M,0.0,0000*4D
$GPESA,093613.500,+0.000,+0.000,+0.000,+0.000,+0.000,+0.000*79
$GPRMC,093613.600,A,3101.8316976,N,12126.6090980,E,0.00,0.00,200323,0.0,E,A,V*78
$GPGGA,093613.600,3101.8316976,N,12126.6090980,E,1,37,1.0,13.145,M,11.106,M,0.0,0000*45
$GPESA,093613.600,+0.000,+0.000,+0.000,+0.000,+0.000,+0.000*7A
$GPRMC,093613.700,A,3101.8326757,N,12126.6083500,E,0.00,0.00,200323,0.0,E,A,V*71
$GPGGA,093613.700,3101.8326757,N,12126.6083500,E,1,39,1.0,13.691,M,11.106,M,0.0,0000*4C
$GPESA,093613.700,+0.000,+0.000,+0.000,+0.000,+0.000,+0.000*7B
$GPRMC,093613.800,A,3101.8321521,N,12126.6089095,E,0.00,0.00,200323,0.0,E,A,V*79
$GPGGA,093613.800,3101.8321521,N,12126.6089095,E,1,36,1.0,13.135,M,11.106,M,0.0,0000*42
$GPESA,093613.800,+0.000,+0.000,+0.000,+0.000,+0.000,+0.000*74
$GPRMC,093613.900,A,3101.8323729,N,12126.6087721,E,0.00,0.00,200323,0.0,E,A,V*76
$GPGGA,093613.900,3101.8323729,N,12126.6087721,E,1,37,1.0,13.192,M,11.106,M,0.0,0000*41
$GPESA,093613.900,+0.000,+0.000,+0.000,+0.000,+0.000,+0.000*75
$GPRMC,093614.000,A,3101.8325736,N,12126.6086668,E,0.00,0.00,200323,0.0,E,A,V*7D
$GPGGA,093614.000,3101.8325736,N,12126.6086668,E,1,37,1.0,13.178,M,11.106,M,0.0,0000*4E
$GPESA,093614.000,+0.000,+0.000,+0.000,+0.000,+0.000,+0.000*7B
$GPRMC,093614.100,A,3101.8327156,N,12126.6085440,E,0.00,0.00,200323,0.0,E,A,V*75
$GPGGA,093614.100,3101.8327156,N,12126.6085440,E,1,38,1.0,13.180,M,11.106,M,0.0,0000*4E
$GPESA,093614.100,+0.000,+0.000,+0.000,+0.000,+0.000,+0.000*7A
$GPRMC,093614.200,A,3101.8329344,N,12126.6084604,E,0.00,0.00,200323,0.0,E,A,V*7A
$GPGGA,093614.200,3101.8329344,N,12126.6084604,E,1,37,1.0,13.172,M,11.106,M,0.0,0000*43
$GPESA,093614.200,+0.000,+0.000,+0.000,+0.000,+0.000,+0.000*79
$GPRMC,093614.300,A,3101.8331496,N,12126.6083195,E,0.00,0.00,200323,0.0,E,A,V*72
$GPGGA,093614.300,3101.8331496,N,12126.6083195,E,1,38,1.0,13.246,M,11.106,M,0.0,0000*40
$GPESA,093614.300,+0.000,+0.000,+0.000,+0.000,+0.000,+0.000*78
$GPRMC,093614.400,A,3101.8340659,N,12126.6076164,E,0.00,0.00,200323,0.0,E,A,V*76
$GPGGA,093614.400,3101.8340659,N,12126.6076164,E,1,38,1.0,13.671,M,11.106,M,0.0,0000*44
$GPESA,093614.400,+0.000,+0.000,+0.000,+0.000,+0.000,+0.000*7F
$GPRMC,093614.500,A,3101.8342636,N,12126.6075022,E,0.00,0.00,200323,0.0,E,A,V*7C
$GPGGA,093614.500,3101.8342636,N,12126.6075022,E,1,39,1.0,13.688,M,11.106,M,0.0,0000*49
$GPESA,093614.500,+0.000,+0.000,+0.000,+0.000,+0.000,+0.000*7E
$GPRMC,093614.600,A,3101.8344537,N,12126.6074037,E,0.00,0.00,200323,0.0,E,A,V*7E
$GPGGA,093614.600,3101.8344537,N,12126.6074037,E,1,38,1.0,13.677,M,11.106,M,0.0,0000*4A
$GPESA,093614.600,+0.000,+0.000,+0.000,+0.000,+0.000,+0.000*7D
$GPRMC,093614.700,A,3101.8346480,N,12126.6072953,E,0.00,0.00,200323,0.0,E,A,V*7D
$GPGGA,093614.700,3101.8346480,N,12126.6072953,E,1,38,1.0,13.676,M,11.106,M,0.0,0000*48
$GPESA,093614.700,+0.000,+0.000,+0.000,+0.000,+0.000,+0.000*7C
$GPRMC,093614.800,A,3101.8348599,N,12126.6072095,E,0.00,0.00,200323,0.0,E,A,V*76
$GPGGA,093614.800,3101.8348599,N,12126.6072095,E,1,37,1.0,13.644,M,11.106,M,0.0,0000*4D
$GPESA,093614.800,+0.000,+0.000,+0.000,+0.000,+0.000,+0.000*73
$GPRMC,093614.900,A,3101.8350304,N,12126.6070753,E,0.00,0.00,200323,0.0,E,A,V*73
$GPGGA,093614.900,3101.8350304,N,12126.6070753,E,1,38,1.0,13.688,M,11.106,M,0.0,0000*47
$GPESA,093614.900,+0.000,+0.000,+0.000,+0.000,+0.000,+0.000*72
$GPRMC,093615.000,A,3101.8352201,N,12126.6069613,E,0.00,0.00,200323,0.0,E,A,V*70
$GPGGA,093615.000,3101.8352201,N,12126.6069613,E,1,38,1.0,13.685,M,11.106,M,0.0,0000*49
$GPESA,093615.000,+0.000,+0.000,+0.000,+0.000,+0.000,+0.000*7A
$GPRMC,093615.100,A,3101.8354229,N,12126.6068711,E,0.00,0.00,200323,0.0,E,A,V*7F
$GPGGA,093615.100,3101.8354229,N,12126.6068711,E,1,37,1.0,13.655,M,11.106,M,0.0,0000*44
$GPESA,093615.100,+0.000,+0.000,+0.000,+0.000,+0.000,+0.000*7B
$GPRMC,093615.200,A,3101.8355926,N,12126.6067302,E,0.00,0.00,200323,0.0,E,A,V*70
$GPGGA,093615.200,3101.8355926,N,12126.6067302,E,1,38,1.0,13.701,M,11.106,M,0.0,0000*44
$GPESA,093615.200,+0.000,+0.000,+0.000,+0.000,+0.000,+0.000*78
$GPRMC,093615.300,A,3101.8357743,N,12126.6066139,E,0.00,0.00,200323,0.0,E,A,V*75
$GPGGA,093615.300,3101.8357743,N,12126.6066139,E,1,38,1.0,13.702,M,11.106,M,0.0,0000*42
$GPESA,093615.300,+0.000,+0.000,+0.000,+0.000,+0.000,+0.000*79
$GPRMC,093615.400,A,3101.8359554,N,12126.6064958,E,0.00,0.00,200323,0.0,E,A,V*75
$GPGGA,093615.400,3101.8359554,N,12126.6064958,E,1,38,1.0,13.695,M,11.106,M,0.0,0000*4D
$GPESA,093615.400,+0.000,+0.000,+0.000,+0.000,+0.000,+0.000*7E
$GPRMC,093615.500,A,3101.8361283,N,12126.6063697,E,0.00,0.00,200323,0.0,E,A,V*79
$GPGGA,093615.500,3101.8361283,N,12126.6063697,E,1,38,1.0,13.697,M,11.106,M,0.0,0000*43
$GPESA,093615.500,+0.000,+0.000,+0.000,+0.000,+0.000,+0.000*7F
$GPRMC,093615.600,A,3101.8363033,N,12126.6062385,E,0.00,0.00,200323,0.0,E,A,V*76
$GPGGA,093615.600,3101.8363033,N,12126.6062385,E,1,38,1.0,13.694,M,11.106,M,0.0,0000*4F
$GPESA,093615.600,+0.000,+0.000,+0.000,+0.000,+0.000,+0.000*7C
$GPRMC,093615.700,A,3101.8364682,N,12126.6061001,E,0.00,0.00,200323,0.0,E,A,V*70
$GPGGA,093615.700,3101.8364682,N,12126.6061001,E,1,38,1.0,13.702,M,11.106,M,0.0,0000*47
$GPESA,093615.700,+0.000,+0.000,+0.000,+0.000,+0.000,+0.000*7D
$GPRMC,093615.800,A,3101.8366340,N,12126.6059563,E,0.00,0.00,200323,0.0,E,A,V*7C
$GPGGA,093615.800,3101.8366340,N,12126.6059563,E,1,38,1.0,13.694,M,11.106,M,0.0,0000*45
$GPESA,093615.800,+0.000,+0.000,+0.000,+0.000,+0.000,+0.000*72
$GPRMC,093615.900,A,3101.8367912,N,12126.6058093,E,0.00,0.00,200323,0.0,E,A,V*7A
$GPGGA,093615.900,3101.8367912,N,12126.6058093,E,1,38,1.0,13.692,M,11.106,M,0.0,0000*45
$GPESA,093615.900,+0.000,+0.000,+0.000,+0.000,+0.000,+0.000*73
$GPRMC,093616.000,A,3101.8369461,N,12126.6056642,E,0.00,0.00,200323,0.0,E,A,V*73
$GPGGA,093616.000,3101.8369461,N,12126.6056642,E,1,38,1.0,13.692,M,11.106,M,0.0,0000*4C
$GPESA,093616.000,+0.000,+0.000,+0.000,+0.000,+0.000,+0.000*79
$GPRMC,093616.100,A,3101.8370986,N,12126.6055159,E,0.00,0.00,200323,0.0,E,A,V*70
$GPGGA,093616.100,3101.8370986,N,12126.6055159,E,1,38,1.0,13.700,M,11.106,M,0.0,0000*45
$GPESA,093616.100,+0.000,+0.000,+0.000,+0.000,+0.000,+0.000*78
$GPRMC,093616.200,A,3101.8365091,N,12126.6059938,E,0.00,0.00,200323,0.0,E,A,V*7B
$GPGGA,093616.200,3101.8365091,N,12126.6059938,E,1,37,1.0,13.199,M,11.106,M,0.0,0000*47
$GPESA,093616.200,+0.000,+0.000,+0.000,+0.000,+0.000,+0.000*7B
$GPRMC,093616.300,A,3101.8363056,N,12126.6061217,E,0.00,0.00,200323,0.0,E,A,V*7A
$GPGGA,093616.300,3101.8363056,N,12126.6061217,E,1,35,1.0,12.080,M,11.106,M,0.0,0000*4C
$GPESA,093616.300,+0.000,+0.000,+0.000,+0.000,+0.000,+0.000*7A
$GPRMC,093616.400,A,3101.8370199,N,12126.6053208,E,0.00,0.00,200323,0.0,E,A,V*72
$GPGGA,093616.400,3101.8370199,N,12126.6053208,E,1,36,1.0,11.778,M,11.106,M,0.0,0000*44
$GPESA,093616.400,+0.000,+0.000,+0.000,+0.000,+0.000,+0.000*7D
$GPRMC,093616.500,A,3101.8371613,N,12126.6051429,E,0.00,0.00,200323,0.0,E,A,V*70
$GPGGA,093616.500,3101.8371613,N,12126.6051429,E,1,36,1.0,11.778,M,11.106,M,0.0,0000*46
$GPESA,093616.500,+0.000,+0.000,+0.000,+0.000,+0.000,+0.000*7C
$GPRMC,093616.600,A,3101.8372989,N,12126.6049588,E,0.00,0.00,200323,0.0,E,A,V*7F
$GPGGA,093616.600,3101.8372989,N,12126.6049588,E,1,36,1.0,11.761,M,11.106,M,0.0,0000*41
$GPESA,093616.600,+0.000,+0.000,+0.000,+0.000,+0.000,+0.000*7F
$GPRMC,093616.700,A,3101.8374220,N,12126.6047955,E,0.00,0.00,200323,0.0,E,A,V*72
$GPGGA,093616.700,3101.8374220,N,12126.6047955,E,1,37,1.0,11.630,M,11.106,M,0.0,0000*48
$GPESA,093616.700,+0.000,+0.000,+0.000,+0.000,+0.000,+0.000*7E
$GPRMC,093616.800,A,3101.8374882,N,12126.6044826,E,0.00,0.00,200323,0.0,E,A,V*79
$GPGGA,093616.800,3101.8374882,N,12126.6044826,E,1,36,1.0,12.000,M,11.106,M,0.0,0000*44
$GPESA,093616.800,+0.000,+0.000,+0.000,+0.000,+0.000,+0.000*71
$GPRMC,093616.900,A,3101.8376308,N,12126.6042470,E,0.00,0.00,200323,0.0,E,A,V*7A
$GPGGA,093616.900,3101.8376308,N,12126.6042470,E,1,35,1.0,12.237,M,11.106,M,0.0,0000*42
$GPESA,093616.900,+0.000,+0.000,+0.000,+0.000,+0.000,+0.000*70
$GPRMC,093617.000,A,3101.8377437,N,12126.6040406,E,0.00,0.00,200323,0.0,E,A,V*7B
$GPGGA,093617.000,3101.8377437,N,12126.6040406,E,1,35,1.0,12.234,M,11.106,M,0.0,0000*40
$GPESA,093617.000,+0.000,+0.000,+0.000,+0.000,+0.000,+0.000*78
$GPRMC,093617.100,A,3101.8378539,N,12126.6038287,E,0.00,0.00,200323,0.0,E,A,V*7A
$GPGGA,093617.100,3101.8378539,N,12126.6038287,E,1,35,1.0,12.238,M,11.106,M,0.0,0000*4D
$GPESA,093617.100,+0.000,+0.000,+0.000,+0.000,+0.000,+0.000*79
$GPRMC,093617.200,A,3101.8379568,N,12126.6036119,E,0.00,0.00,200323,0.0,E,A,V*76
$GPGGA,093617.200,3101.8379568,N,12126.6036119,E,1,35,1.0,12.230,M,11.106,M,0.0,0000*49
$GPESA,093617.200,+0.000,+0.000,+0.000,+0.000,+0.000,+0.000*7A
$GPRMC,093617.300,A,3101.8380484,N,12126.6033846,E,0.00,0.00,200323,0.0,E,A,V*74
$GPGGA,093617.300,3101.8380484,N,12126.6033846,E,1,35,1.0,12.244,M,11.106,M,0.0,0000*48
$GPESA,093617.300,+0.000,+0.000,+0.000,+0.000,+0.000,+0.000*7B
$GPRMC,093617.400,A,3101.8379408,N,12126.6035971,E,0.00,0.00,200323,0.0,E,A,V*72
$GPGGA,093617.400,3101.8379408,N,12126.6035971,E,1,36,1.0,13.375,M,11.106,M,0.0,0000*4F
$GPESA,093617.400,+0.000,+0.000,+0.000,+0.000,+0.000,+0.000*7C
$GPRMC,093617.500,A,3101.8379836,N,12126.6033665,E,0.00,0.00,200323,0.0,E,A,V*7E
$GPGGA,093617.500,3101.8379836,N,12126.6033665,E,1,36,1.0,13.341,M,11.106,M,0.0,0000*44
$GPESA,093617.500,+0.000,+0.000,+0.000,+0.000,+0.000,+0.000*7D
$GPRMC,093617.600,A,3101.8381015,N,12126.6031121,E,0.00,0.00,200323,0.0,E,A,V*76
$GPGGA,093617.600,3101.8381015,N,12126.6031121,E,1,36,1.0,13.381,M,11.106,M,0.0,0000*40
$GPESA,093617.600,+0.000,+0.000,+0.000,+0.000,+0.000,+0.000*7E
$GPRMC,093617.700,A,3101.8384054,N,12126.6025680,E,0.00,0.00,200323,0.0,E,A,V*7E
$GPGGA,093617.700,3101.8384054,N,12126.6025680,E,1,37,1.0,11.643,M,11.106,M,0.0,0000*40
$GPESA,093617.700,+0.000,+0.000,+0.000,+0.000,+0.000,+0.000*7F
$GPRMC,093617.800,A,3101.8384738,N,12126.6023080,E,0.00,0.00,200323,0.0,E,A,V*7C
$GPGGA,093617.800,3101.8384738,N,12126.6023080,E,1,37,1.0,11.630,M,11.106,M,0.0,0000*46
$GPESA,093617.800,+0.000,+0.000,+0.000,+0.000,+0.000,+0.000*70
$GPRMC,093617.900,A,3101.8385374,N,12126.6020411,E,0.00,0.00,200323,0.0,E,A,V*7F
$GPGGA,093617.900,3101.8385374,N,12126.6020411,E,1,37,1.0,11.626,M,11.106,M,0.0,0000*42
$GPESA,093617.900,+0.000,+0.000,+0.000,+0.000,+0.000,+0.000*71
$GPRMC,093618.000,A,3101.8386089,N,12126.6017412,E,0.00,0.00,200323,0.0,E,A,V*7C
$GPGGA,093618.000,3101.8386089,N,12126.6017412,E,1,36,1.0,11.756,M,11.106,M,0.0,0000*46
$GPESA,093618.000,+0.000,+0.000,+0.000,+0.000,+0.000,+0.000*77
$GPRMC,093618.100,A,3101.8389862,N,12126.6013082,E,0.00,0.00,200323,0.0,E,A,V*76
$GPGGA,093618.100,3101.8389862,N,12126.6013082,E,1,37,1.0,16.071,M,11.106,M,0.0,0000*48
$GPESA,093618.100,+0.000,+0.000,+0.000,+0.000,+0.000,+0.000*76
$GPRMC,093618.200,A,3101.8390265,N,12126.6010242,E,0.00,0.00,200323,0.0,E,A,V*7D
$GPGGA,093618.200,3101.8390265,N,12126.6010242,E,1,37,1.0,16.072,M,11.106,M,0.0,0000*40
$GPESA,093618.200,+0.000,+0.000,+0.000,+0.000,+0.000,+0.000*75
$GPRMC,093618.300,A,3101.8390563,N,12126.6007344,E,0.00,0.00,200323,0.0,E,A,V*7C
$GPGGA,093618.300,3101.8390563,N,12126.6007344,E,1,37,1.0,16.066,M,11.106,M,0.0,0000*44
$GPESA,093618.300,+0.000,+0.000,+0.000,+0.000,+0.000,+0.000*74
$GPRMC,093618.400,A,3101.8392733,N,12126.6003066,E,0.00,0.00,200323,0.0,E,A,V*79
$GPGGA,093618.400,3101.8392733,N,12126.6003066,E,1,38,1.0,13.675,M,11.106,M,0.0,0000*4F
$GPESA,093618.400,+0.000,+0.000,+0.000,+0.000,+0.000,+0.000*73
$GPRMC,093618.500,A,3101.8393002,N,12126.6000087,E,0.00,0.00,200323,0.0,E,A,V*70
$GPGGA,093618.500,3101.8393002,N,12126.6000087,E,1,38,1.0,13.670,M,11.106,M,0.0,0000*43
$GPESA,093618.500,+0.000,+0.000,+0.000,+0.000,+0.000,+0.000*72
$GPRMC,093618.600,A,3101.8393240,N,12126.5997078,E,0.00,0.00,200323,0.0,E,A,V*73
$GPGGA,093618.600,3101.8393240,N,12126.5997078,E,1,38,1.0,13.664,M,11.106,M,0.0,0000*45
$GPESA,093618.600,+0.000,+0.000,+0.000,+0.000,+0.000,+0.000*71
$GPRMC,093618.700,A,3101.8393372,N,12126.5993980,E,0.00,0.00,200323,0.0,E,A,V*78
$GPGGA,093618.700,3101.8393372,N,12126.5993980,E,1,38,1.0,13.660,M,11.106,M,0.0,0000*4A
$GPESA,093618.700,+0.000,+0.000,+0.000,+0.000,+0.000,+0.000*70
$GPRMC,093618.800,A,3101.8393375,N,12126.5990847,E,0.00,0.00,200323,0.0,E,A,V*79
$GPGGA,093618.800,3101.8393375,N,12126.5990847,E,1,38,1.0,13.662,M,11.106,M,0.0,0000*49
$GPESA,093618.800,+0.000,+0.000,+0.000,+0.000,+0.000,+0.000*7F
$GPRMC,093618.900,A,3101.8393310,N,12126.5987647,E,0.00,0.00,200323,0.0,E,A,V*73
$GPGGA,093618.900,3101.8393310,N,12126.5987647,E,1,40,1.0,13.664,M,11.106,M,0.0,0000*4A
$GPESA,093618.900,+0.000,+0.000,+0.000,+0.000,+0.000,+0.000*7E
$GPRMC,093619.000,A,3101.8391764,N,12126.5989937,E,0.00,0.00,200323,0.0,E,A,V*78
$GPGGA,093619.000,3101.8391764,N,12126.5989937,E,1,40,1.0,15.936,M,11.106,M,0.0,0000*4F
$GPESA,093619.000,+0.000,+0.000,+0.000,+0.000,+0.000,+0.000*76
$GPRMC,093619.100,A,3101.8391589,N,12126.5986434,E,0.00,0.00,200323,0.0,E,A,V*79
$GPGGA,093619.100,3101.8391589,N,12126.5986434,E,1,40,1.0,15.864,M,11.106,M,0.0,0000*48
$GPESA,093619.100,+0.000,+0.000,+0.000,+0.000,+0.000,+0.000*77
$GPRMC,093619.200,A,3101.8391425,N,12126.5982909,E,0.00,0.00,200323,0.0,E,A,V*7A
$GPGGA,093619.200,3101.8391425,N,12126.5982909,E,1,40,1.0,15.781,M,11.106,M,0.0,0000*4F
$GPESA,093619.200,+0.000,+0.000,+0.000,+0.000,+0.000,+0.000*74
$GPRMC,093619.300,A,3101.8391412,N,12126.5977523,E,0.00,0.00,200323,0.0,E,A,V*71
$GPGGA,093619.300,3101.8391412,N,12126.5977523,E,1,39,1.0,16.571,M,11.105,M,0.0,0000*47
$GPESA,093619.300,+0.000,+0.000,+0.000,+0.000,+0.000,+0.000*75
$GPRMC,093619.400,A,3101.8390842,N,12126.5975806,E,0.00,0.00,200323,0.0,E,A,V*76
$GPGGA,093619.400,3101.8390842,N,12126.5975806,E,1,40,1.0,15.656,M,11.105,M,0.0,0000*4B
$GPESA,093619.400,+0.000,+0.000,+0.000,+0.000,+0.000,+0.000*72
$GPRMC,093619.500,A,3101.8390705,N,12126.5970473,E,0.00,0.00,200323,0.0,E,A,V*70
$GPGGA,093619.500,3101.8390705,N,12126.5970473,E,1,39,1.0,16.479,M,11.105,M,0.0,0000*4F
$GPESA,093619.500,+0.000,+0.000,+0.000,+0.000,+0.000,+0.000*73
$GPRMC,093619.600,A,3101.8388902,N,12126.5968464,E,0.00,0.00,200323,0.0,E,A,V*7C
$GPGGA,093619.600,3101.8388902,N,12126.5968464,E,1,38,1.0,15.986,M,11.105,M,0.0,0000*4C
$GPESA,093619.600,+0.000,+0.000,+0.000,+0.000,+0.000,+0.000*70
$GPRMC,093619.700,A,3101.8388466,N,12126.5964969,E,0.00,0.00,200323,0.0,E,A,V*7E
$GPGGA,093619.700,3101.8388466,N,12126.5964969,E,1,38,1.0,15.981,M,11.105,M,0.0,0000*49
$GPESA,093619.700,+0.000,+0.000,+0.000,+0.000,+0.000,+0.000*71
$GPRMC,093619.800,A,3101.8388215,N,12126.5961977,E,0.00,0.00,200323,0.0,E,A,V*79
$GPGGA,093619.800,3101.8388215,N,12126.5961977,E,1,38,1.0,16.150,M,11.105,M,0.0,0000*49
$GPESA,093619.800,+0.000,+0.000,+0.000,+0.000,+0.000,+0.000*7E
$GPRMC,093619.900,A,3101.8379490,N,12126.5962853,E,0.00,0.00,200323,0.0,E,A,V*79
$GPGGA,093619.900,3101.8379490,N,12126.5962853,E,1,36,1.0,11.950,M,11.105,M,0.0,0000*48
$GPESA,093619.900,+0.000,+0.000,+0.000,+0.000,+0.000,+0.000*7F
$GPRMC,093620.000,A,3101.8384737,N,12126.5952809,E,0.00,0.00,200323,0.0,E,A,V*7A
$GPGGA,093620.000,3101.8384737,N,12126.5952809,E,1,37,1.0,11.646,M,11.105,M,0.0,0000*42
$GPESA,093620.000,+0.000,+0.000,+0.000,+0.000,+0.000,+0.000*7C
$GPRMC,093620.100,A,3101.8384161,N,12126.5949052,E,0.00,0.00,200323,0.0,E,A,V*72
$GPGGA,093620.100,3101.8384161,N,12126.5949052,E,1,36,1.0,11.598,M,11.105,M,0.0,0000*4B
$GPESA,093620.100,+0.000,+0.000,+0.000,+0.000,+0.000,+0.000*7D
$GPRMC,093620.200,A,3101.8383518,N,12126.5945460,E,0.00,0.00,200323,0.0,E,A,V*75
$GPGGA,093620.200,3101.8383518,N,12126.5945460,E,1,37,1.0,11.643,M,11.105,M,0.0,0000*48
$GPESA,093620.200,+0.000,+0.000,+0.000,+0.000,+0.000,+0.000*7E
$GPRMC,093620.300,A,3101.8383112,N,12126.5941431,E,0.00,0.00,200323,0.0,E,A,V*7A
$GPGGA,093620.300,3101.8383112,N,12126.5941431,E,1,35,1.0,11.881,M,11.105,M,0.0,0000*45
$GPESA,093620.300,+0.000,+0.000,+0.000,+0.000,+0.000,+0.000*7F
$GPRMC,093620.400,A,3101.8382148,N,12126.5937997,E,0.00,0.00,200323,0.0,E,A,V*73
$GPGGA,093620.400,3101.8382148,N,12126.5937997,E,1,37,1.0,11.618,M,11.105,M,0.0,0000*40
$GPESA,093620.400,+0.000,+0.000,+0.000,+0.000,+0.000,+0.000*78
$GPRMC,093620.500,A,3101.8381345,N,12126.5934269,E,0.00,0.00,200323,0.0,E,A,V*77
$GPGGA,093620.500,3101.8381345,N,12126.5934269,E,1,36,1.0,11.622,M,11.105,M,0.0,0000*4C
$GPESA,093620.500,+0.000,+0.000,+0.000,+0.000,+0.000,+0.000*79
$GPRMC,093620.600,A,3101.8380575,N,12126.5930525,E,0.00,0.00,200323,0.0,E,A,V*7B
$GPGGA,093620.600,3101.8380575,N,12126.5930525,E,1,37,1.0,11.619,M,11.105,M,0.0,0000*49
$GPESA,093620.600,+0.000,+0.000,+0.000,+0.000,+0.000,+0.000*7A
$GPRMC,093620.700,A,3101.8379690,N,12126.5926748,E,0.00,0.00,200323,0.0,E,A,V*7A
$GPGGA,093620.700,3101.8379690,N,12126.5926748,E,1,36,1.0,11.636,M,11.105,M,0.0,0000*44
$GPESA,093620.700,+0.000,+0.000,+0.000,+0.000,+0.000,+0.000*7B
$GPRMC,093620.800,A,3101.8376261,N,12126.5928375,E,0.00,0.00,200323,0.0,E,A,V*74
$GPGGA,093620.800,3101.8376261,N,12126.5928375,E,1,36,1.0,14.597,M,11.105,M,0.0,0000*47
$GPESA,093620.800,+0.000,+0.000,+0.000,+0.000,+0.000,+0.000*74
$GPRMC,093620.900,A,3101.8375352,N,12126.5924426,E,0.00,0.00,200323,0.0,E,A,V*7A
$GPGGA,093620.900,3101.8375352,N,12126.5924426,E,1,36,1.0,14.567,M,11.105,M,0.0,0000*46
$GPESA,093620.900,+0.000,+0.000,+0.000,+0.000,+0.000,+0.000*75
$GPRMC,093621.000,A,3101.8374430,N,12126.5919901,E,0.00,0.00,200323,0.0,E,A,V*76
$GPGGA,093621.000,3101.8374430,N,12126.5919901,E,1,37,1.0,14.276,M,11.105,M,0.0,0000*4C
$GPESA,093621.000,+0.000,+0.000,+0.000,+0.000,+0.000,+0.000*7D
$GPRMC,093621.100,A,3101.8373460,N,12126.5915864,E,0.00,0.00,200323,0.0,E,A,V*7B
$GPGGA,093621.100,3101.8373460,N,12126.5915864,E,1,37,1.0,14.241,M,11.105,M,0.0,0000*45
$GPESA,093621.100,+0.000,+0.000,+0.000,+0.000,+0.000,+0.000*7C
$GPRMC,093621.200,A,3101.8372542,N,12126.5911801,E,0.00,0.00,200323,0.0,E,A,V*7F
$GPGGA,093621.200,3101.8372542,N,12126.5911801,E,1,37,1.0,14.205,M,11.105,M,0.0,0000*41
$GPESA,093621.200,+0.000,+0.000,+0.000,+0.000,+0.000,+0.000*7F
$GPRMC,093621.300,A,3101.8376986,N,12126.5902962,E,0.00,0.00,200323,0.0,E,A,V*78
$GPGGA,093621.300,3101.8376986,N,12126.5902962,E,1,38,1.0,16.807,M,11.105,M,0.0,0000*43
$GPESA,093621.300,+0.000,+0.000,+0.000,+0.000,+0.000,+0.000*7E
$GPRMC,093621.400,A,3101.8378477,N,12126.5894472,E,0.00,0.00,200323,0.0,E,A,V*70
$GPGGA,093621.400,3101.8378477,N,12126.5894472,E,1,37,1.0,14.490,M,11.105,M,0.0,0000*44
$GPESA,093621.400,+0.000,+0.000,+0.000,+0.000,+0.000,+0.000*79
$GPRMC,093621.500,A,3101.8377357,N,12126.5890516,E,0.00,0.00,200323,0.0,E,A,V*7C
$GPGGA,093621.500,3101.8377357,N,12126.5890516,E,1,37,1.0,14.479,M,11.105,M,0.0,0000*4F
$GPESA,093621.500,+0.000,+0.000,+0.000,+0.000,+0.000,+0.000*78
$GPRMC,093621.600,A,3101.8376261,N,12126.5886492,E,0.00,0.00,200323,0.0,E,A,V*70
$GPGGA,093621.600,3101.8376261,N,12126.5886492,E,1,37,1.0,14.472,M,11.105,M,0.0,0000*48
$GPESA,093621.600,+0.000,+0.000,+0.000,+0.000,+0.000,+0.000*7B
$GPRMC,093621.700,A,3101.8375181,N,12126.5882326,E,0.00,0.00,200323,0.0,E,A,V*73
$GPGGA,093621.700,3101.8375181,N,12126.5882326,E,1,37,1.0,14.465,M,11.105,M,0.0,0000*4D
$GPESA,093621.700,+0.000,+0.000,+0.000,+0.000,+0.000,+0.000*7A
$GPRMC,093621.800,A,3101.8374033,N,12126.5878174,E,0.00,0.00,200323,0.0,E,A,V*75
$GPGGA,093621.800,3101.8374033,N,12126.5878174,E,1,37,1.0,14.464,M,11.105,M,0.0,0000*4A
$GPESA,093621.800,+0.000,+0.000,+0.000,+0.000,+0.000,+0.000*75
$GPRMC,093621.900,A,3101.8372793,N,12126.5874026,E,0.00,0.00,200323,0.0,E,A,V*75
$GPGGA,093621.900,3101.8372793,N,12126.5874026,E,1,37,1.0,14.474,M,11.105,M,0.0,0000*4B
$GPESA,093621.900,+0.000,+0.000,+0.000,+0.000,+0.000,+0.000*74
$GPRMC,093622.000,A,3101.8371574,N,12126.5869916,E,0.00,0.00,200323,0.0,E,A,V*71
$GPGGA,093622.000,3101.8371574,N,12126.5869916,E,1,37,1.0,14.471,M,11.105,M,0.0,0000*4A
$GPESA,093622.000,+0.000,+0.000,+0.000,+0.000,+0.000,+0.000*7E
$GPRMC,093622.100,A,3101.8370465,N,12126.5866025,E,0.00,0.00,200323,0.0,E,A,V*76
$GPGGA,093622.100,3101.8370465,N,12126.5866025,E,1,36,1.0,14.419,M,11.105,M,0.0,0000*42
$GPESA,093622.100,+0.000,+0.000,+0.000,+0.000,+0.000,+0.000*7F
$GPRMC,093622.200,A,3101.8369116,N,12126.5861621,E,0.00,0.00,200323,0.0,E,A,V*79
$GPGGA,093622.200,3101.8369116,N,12126.5861621,E,1,37,1.0,14.448,M,11.105,M,0.0,0000*48
$GPESA,093622.200,+0.000,+0.000,+0.000,+0.000,+0.000,+0.000*7C
$GPRMC,093622.300,A,3101.8362251,N,12126.5862077,E,0.00,0.00,200323,0.0,E,A,V*75
$GPGGA,093622.300,3101.8362251,N,12126.5862077,E,1,36,1.0,11.710,M,11.105,M,0.0,0000*4E
$GPESA,093622.300,+0.000,+0.000,+0.000,+0.000,+0.000,+0.000*7D
$GPRMC,093622.400,A,3101.8355786,N,12126.5863352,E,0.00,0.00,200323,0.0,E,A,V*7C
$GPGGA,093622.400,3101.8355786,N,12126.5863352,E,1,36,1.0,12.290,M,11.105,M,0.0,0000*49
$GPESA,093622.400,+0.000,+0.000,+0.000,+0.000,+0.000,+0.000*7A
$GPRMC,093622.500,A,3101.8354508,N,12126.5858967,E,0.00,0.00,200323,0.0,E,A,V*7C
$GPGGA,093622.500,3101.8354508,N,12126.5858967,E,1,36,1.0,12.298,M,11.105,M,0.0,0000*41
$GPESA,093622.500,+0.000,+0.000,+0.000,+0.000,+0.000,+0.000*7B
$GPRMC,093622.600,A,3101.8352849,N,12126.5855313,E,0.00,0.00,200323,0.0,E,A,V*75
$GPGGA,093622.600,3101.8352849,N,12126.5855313,E,1,35,1.0,11.920,M,11.105,M,0.0,0000*40
$GPESA,093622.600,+0.000,+0.000,+0.000,+0.000,+0.000,+0.000*78
$GPRMC,093622.700,A,3101.8351897,N,12126.5850064,E,0.00,0.00,200323,0.0,E,A,V*72
$GPGGA,093622.700,3101.8351897,N,12126.5850064,E,1,36,1.0,12.290,M,11.105,M,0.0,0000*47
$GPESA,093622.700,+0.000,+0.000,+0.000,+0.000,+0.000,+0.000*79
$GPRMC,093622.800,A,3101.8353685,N,12126.5842691,E,0.00,0.00,200323,0.0,E,A,V*7D
$GPGGA,093622.800,3101.8353685,N,12126.5842691,E,1,35,1.0,13.496,M,11.105,M,0.0,0000*4A
$GPESA,093622.800,+0.000,+0.000,+0.000,+0.000,+0.000,+0.000*76
$GPRMC,093622.900,A,3101.8352363,N,12126.5838115,E,0.00,0.00,200323,0.0,E,A,V*76
$GPGGA,093622.900,3101.8352363,N,12126.5838115,E,1,35,1.0,13.519,M,11.105,M,0.0,0000*47
$GPESA,093622.900,+0.000,+0.000,+0.000,+0.000,+0.000,+0.000*77
$GPRMC,093623.000,A,3101.8351062,N,12126.5833597,E,0.00,0.00,200323,0.0,E,A,V*7A
$GPGGA,093623.000,3101.8351062,N,12126.5833597,E,1,35,1.0,13.495,M,11.105,M,0.0,0000*4E
$GPESA,093623.000,+0.000,+0.000,+0.000,+0.000,+0.000,+0.000*7F
$GPRMC,093623.100,A,3101.8349707,N,12126.5829098,E,0.00,0.00,200323,0.0,E,A,V*77
$GPGGA,093623.100,3101.8349707,N,12126.5829098,E,1,35,1.0,13.478,M,11.105,M,0.0,0000*40
$GPESA,093623.100,+0.000,+0.000,+0.000,+0.000,+0.000,+0.000*7E
$GPRMC,093623.200,A,3101.8350611,N,12126.5822014,E,0.00,0.00,200323,0.0,E,A,V*75
$GPGGA,093623.200,3101.8350611,N,12126.5822014,E,1,37,1.0,11.530,M,11.105,M,0.0,0000*4F
$GPESA,093623.200,+0.000,+0.000,+0.000,+0.000,+0.000,+0.000*7D
$GPRMC,093623.300,A,3101.8349129,N,12126.5817288,E,0.00,0.00,200323,0.0,E,A,V*71
$GPGGA,093623.300,3101.8349129,N,12126.5817288,E,1,36,1.0,11.678,M,11.105,M,0.0,0000*45
$GPESA,093623.300,+0.000,+0.000,+0.000,+0.000,+0.000,+0.000*7C
$GPRMC,093623.400,A,3101.8348193,N,12126.5812398,E,0.00,0.00,200323,0.0,E,A,V*73
$GPGGA,093623.400,3101.8348193,N,12126.5812398,E,1,35,1.0,11.853,M,11.104,M,0.0,0000*42
$GPESA,093623.400,+0.000,+0.000,+0.000,+0.000,+0.000,+0.000*7B
$GPRMC,093623.500,A,3101.8344271,N,12126.5810766,E,0.00,0.00,200323,0.0,E,A,V*76
$GPGGA,093623.500,3101.8344271,N,12126.5810766,E,1,35,1.0,13.471,M,11.104,M,0.0,0000*49
$GPESA,093623.500,+0.000,+0.000,+0.000,+0.000,+0.000,+0.000*7A
$GPRMC,093623.600,A,3101.8342875,N,12126.5806098,E,0.00,0.00,200323,0.0,E,A,V*7C
$GPGGA,093623.600,3101.8342875,N,12126.5806098,E,1,35,1.0,13.471,M,11.104,M,0.0,0000*43
$GPESA,093623.600,+0.000,+0.000,+0.000,+0.000,+0.000,+0.000*79
$GPRMC,093623.700,A,3101.8346611,N,12126.5796396,E,0.00,0.00,200323,0.0,E,A,V*7E
$GPGGA,093623.700,3101.8346611,N,12126.5796396,E,1,36,1.0,16.449,M,11.104,M,0.0,0000*4C
$GPESA,093623.700,+0.000,+0.000,+0.000,+0.000,+0.000,+0.000*78
$GPRMC,093623.800,A,3101.8345209,N,12126.5791714,E,0.00,0.00,200323,0.0,E,A,V*76
$GPGGA,093623.800,3101.8345209,N,12126.5791714,E,1,36,1.0,16.440,M,11.104,M,0.0,0000*4D
$GPESA,093623.800,+0.000,+0.000,+0.000,+0.000,+0.000,+0.000*77
$GPRMC,093623.900,A,3101.8343779,N,12126.5787081,E,0.00,0.00,200323,0.0,E,A,V*7F
$GPGGA,093623.900,3101.8343779,N,12126.5787081,E,1,36,1.0,16.446,M,11.104,M,0.0,0000*42
$GPESA,093623.900,+0.000,+0.000,+0.000,+0.000,+0.000,+0.000*76
$GPRMC,093624.000,A,3101.8337213,N,12126.5787468,E,0.00,0.00,200323,0.0,E,A,V*78
$GPGGA,093624.000,3101.8337213,N,12126.5787468,E,1,35,1.0,13.460,M,11.104,M,0.0,0000*47
$GPESA,093624.000,+0.000,+0.000,+0.000,+0.000,+0.000,+0.000*78
$GPRMC,093624.100,A,3101.8340957,N,12126.5777766,E,0.00,0.00,200323,0.0,E,A,V*70
